name,longitude,latitude
ANK PETRO INC,-73.816249346,42.46925125
EVANS JULIA,-73.949128787,42.577416307
HUBRIX LLC,-77.795356304,42.158830586
REID STORES INC,-78.277036649,42.220633641
361 DELI GROCERY LLC,-73.877219853,40.871759695
AMAA GOURMET DELI CORP,-73.875481195,40.826581028
LA LUPITA CORP,-73.864766105,40.851961305
JULIES CAKERY INC,-75.639964768,42.076284863
VERMA CORP,-73.60016409,42.356255433
DOLGEN NEW YORK LLC,-74.50411597,42.368090177
SINGH AVTAR,-73.836155987,41.734750975
DOLGEN NEW YORK LLC,-78.781737862,42.839567705
ECKERD CORP,-78.794266963,42.919292973
FEDERAL MARKET CO INC,-78.632553312,42.765050783
TOPS MARKETS LLC,-78.631793409,42.767328021
ALDI INC,-74.31853594,44.846282287
ALDI INC,-74.360398852,43.017913146
ALDI INC,-75.837231046,44.046248985
26 SINGH INC,-73.930655456,40.653655669
BDD NY CORP,-73.995338554,40.607630713
GOOD LUCK PHARMACY INC,-73.902121565,40.665768599
HADAR GEULAH INC,-73.987099814,40.622399124
INLET MARKET CORP,-73.941785485,40.686375383
KAPLEN MEDDEL,-73.992675708,40.603858521
EZ SUPEMART INC,-77.591239977,43.144752548
MO PASTA LLC,-77.429975847,43.212103612
KUDU INC,-73.59353719,40.652394519
MC DELI CORP,-73.690702055,40.704761632
OH NUTS INC,-73.724812043,40.621236218
ZACK86 CORP,-73.586832841,40.666651884
207 INC I,-73.921381335,40.86747692
ABC MART NC,-73.951489634,40.825469462
HL DELI CORP,-73.952696209,40.768008917
ITO INC,-73.985750747,40.743633923
PS MEAT CORP,-73.954287094,40.803794447
SUN TUNG-FAT MEATS INC,-73.997099928,40.713041779
LEE SANDRA,-75.333440749,43.499903215
MUJUGO LLC,-75.267726367,43.10916875
LE HIEU N,-76.148625424,43.060923877
MAHMOOD HAMZA,-76.104770552,43.041954205
SMOKEWIND INC,-76.119145935,43.037023257
DOLGEN NEW YORK LLC,-74.038098498,41.434534547
ONECO INC,-76.387189979,43.334155522
ALDI INC,-75.052143743,42.447981617
ALIKAJ LLC,-73.737994262,41.36977722
LUS LICENSING LLC,-73.901714875,40.778964232
NEW BAGELMANIA INC,-73.905193952,40.757106031
SEAGIRT MARKET & DELI CORP,-73.759056979,40.59509411
DOLGEN NEW YORK LLC,-77.419807342,42.401003103
LAIN HARRY E,-77.615263349,42.302508029
DURAN VICTORIA,-73.324837682,40.694402773
WYANDANCH DELI & GRILL,-73.367391452,40.740868081
BIG LOTS STORES-PNS LLC,-73.991023299,41.971255803
PERFUMA LLC,-73.6989962,43.36837263
KDA INC,-73.852747965,41.323678261
LOTTO PLUS CORP,-73.886240206,40.947034634
MARIA SAZON DELI CORP,-73.894834255,40.928954827
SKAZ CORPORATION,-73.781676131,41.275089919
V&C DELI INC,-73.895596254,40.915791342
ALDI INC,-78.992660576,43.10655676
PEOPLES DRUG RX INC,-73.879369643,40.875530462
MCKINLEY DELI AND GROCERY CORP,-73.867387964,40.680373689
3 MMM TREE COFFEE DELI CORP,-73.859811646,40.846384112
SOS CHEFS OF NEW YORK INC,-73.981489387,40.724888719
CARLA MARLAS ICE CREAM INC,-72.939217832,40.756903859
30CKS DELI CORP,-73.897993033,40.933705522
ABU MUSA DELI & GRILL CORP,-73.779305142,40.691497145
SARATOGA GLUTEN FREE GOODS LLC,-73.579930511,43.102434791
RATNAM ENTERPRISE INC,-73.832416988,40.688270699
77 GOURMET DELI INC,-73.85987736,40.680192262
CHIARO PETER&WILLIAM&DAVID,-73.857839216,42.728059223
RD AMERICA LLC,-77.600556965,43.09191479
107 DELI GROCERY CORP,-73.840277872,40.695521464
HALA INTERNATIONAL FOOD INC,-73.895704357,40.92262705
MIDI FOODS INC,-73.804284722,40.977062425
SMITH DARYL,-78.388546472,43.320628513
STEWARTS SHOPS CORP,-73.459053996,44.047642608
DOLGEN NEW YORK LLC,-75.709321581,44.146437461
EL REAL FOOD MARKET CORP,-73.914321258,40.698857671
PRIYA TWO PETROLEUM INC,-74.012106398,42.286430301
LOS SISO GROCERY CORP,-74.120524122,40.634186594
H&H APPLE FOOD CORP,-74.334983078,42.705654564
IT' SUGAR LLC,-76.173724698,43.067956293
WALGREEN EASTERN CO INC,-73.93018007,40.651873164
MIKAN BEVERAGE INC,-73.49555534,40.81051338
DORIANS SEAFOOD MARKET INC,-73.948255393,40.774077457
MHB TRADING INC,-72.963988284,40.945041418
LIC BEER PROJECT LLC,-73.939202351,40.754785585
R&M 1 DELI GROCERY CORP,-73.903681354,40.862437217
JESSICA DELI GROCERY CORP,-73.941015105,40.684222239
"KPH HEALTHCARE SERVICES, INC.",-76.420690937,42.712090524
NASSAU GROCERY INC,-74.008798047,40.709261163
MAKSOUD BROS FOOD CORP,-73.950009222,40.653443262
MOUNTAIN MART #108 LLC,-74.548844152,44.82132232
NORTH CREEK ENTERPRISES LLC,-74.379703465,42.38511793
EL TROPICAL DELI GROCERY CORP,-73.835855747,40.838607215
JP BXWOOD GROCERY CORP,-73.851955623,40.891512656
SPIRITS LAB LLC THE,-74.011749567,41.499122182
MM AHUJA INC,-73.294046541,40.811982127
PRICE CHOPPER OPERATING CO INC,-74.361103517,43.015749679
WT HOMEMADE LLC,-74.269229,42.305856
BRONX FAMOUS DELI CORP,-73.902965791,40.822522091
WHITE MOUNTAIN FARM INC,-73.997304111,40.605722238
PRICE CHOPPER OPERATING CO INC,-76.052376701,42.104509455
DUANE READE ET AL PTRS,-74.010675593,40.644962746
CHARLES SCATTURO&SONS INC,-73.859397999,40.692606783
CST NEW YORK LLC,-76.133246202,43.232713757
TASTY BOWL INC,-74.193782124,40.552917295
PATEL AND PATEL LLC,-76.977287194,42.523613918
WILSON 26 DELI GROCERY CORP,-73.930126258,40.703076157
POSNERS FOOD CENTER INC,-73.984566216,40.635595802
YOUR RED ROSES INC,-73.922477555,40.809566489
OSR RETAIL INC,-72.658014033,40.822665547
EL MANANTIAL GROCERY STORE INC,-73.935905245,40.844124016
TORTILLA VILLA INC THE,-74.278920216,41.349619916
PARKWAY CONVENIENCE INC,-73.857948516,40.906655612
284 KINGS HWY INC,-73.980002438,40.605043806
HEAVENLY MARKET CAFE INC,-73.981117734,40.73729402
BUTTERFULL LLC,-73.965695535,41.502761562
STRANGE BIRD BEER AND BARREL HOUSE LLC,-77.601934279,43.150595656
WILD HIVE GRAIN PROJECT INC,-73.759137026,41.845890359
LOVEBITES CHOCOLATE SHOPPE LLC,-74.187518998,41.328481427
SUGAR HILL TRADING POST LLC,-77.027322881,42.323127343
ITALCORP INC,-73.850033234,40.826599216
MECHYS ON J CORP,-73.961872381,40.625006524
RALEO VALLEY INC,-73.917672007,41.291596317
MILFORD CORNER STORE INC,-74.945771776,42.590526358
GREEN FOREST FOOD CORP,-73.927606993,40.83580154
MARKET OF ROCKLAND LLC,-73.984493294,41.201177417
COOKIE FACTORY THE LLC,-73.678298012,42.721778789
3083 MAIN ST INC,-78.828519778,42.948490746
TEJEDA JUAN,-73.894447598,40.853730347
HR C STORE INC,-72.967464427,40.956979846
STEWARTS SHOPS CORP,-73.651773647,42.939273293
OCEANA DELI AND GRILL INC,-73.956946756,40.578211071
SPEEDWAY LLC,-76.110856736,43.027592401
SAM DELI & CONVENIENCE STORE INC,-74.031837133,40.621988578
ADEN GROCERY INC,-73.918483693,40.814935415
EL QUETZALITO 7 CORP,-74.003843839,40.644642222
D ZONE GROCERY & DELI CORP,-73.899433178,40.927885618
143 ST DELI & DICOUNT CORP,-73.812684898,40.70507126
SALAT MEAT & GROCERY CORP,-73.876069688,40.713178404
49 ROSE GROCERY INC,-73.855513909,40.744764768
BROTHERHOOD AMRCS OLDEST WNRY LTD,-74.162981815,41.432418829
FAMILY DOLLAR STORES OF NEW YORK LLC,-78.428537059,42.533767278
NXU DELI AND GRILL CORP,-73.997350127,40.625488232
NEW GOLD TIM CORP,-73.842015021,40.785048195
DOLGEN NEW YORK LLC,-78.630644166,42.768473617
JL&H DELI CORP,-73.910996241,40.707914569
GRAVESEND DELI & GRILL INC,-73.955338017,40.595005974
MAHARAJ MATAJI CORPORATION,-73.89440309,40.726328688
EAST 11TH STREET DELI CORP,-73.980460593,40.727783451
CONSTELLATION THIRTY NINE INC,-78.616719227,42.767691376
FREELAND THOMAS,-77.053857053,42.14344679
FRANKIES SUPERETTE LLC,-73.807408715,41.581237283
MACCA HALAL MARKET 2 INC,-73.86008322,40.846642107
JJR 66-82 FOOD CORP,-73.896979016,40.706254198
HAZEN BRETT&JOANNE,-74.263915268,44.856104788
DE CENTRO AMERICA DELI INC,-73.690133679,40.706788376
EMUNA 55 INC,-73.843707244,40.837639398
DOLGEN NEW YORK LLC,-76.141282877,43.008193156
FASTRAC EG LLC,-77.594734979,43.160362501
IT' SUGAR LLC,-73.981800272,40.770107075
KRAZY DOLLAR DEALS INC,-73.902144364,40.850971863
LAMS LAB LLC,-73.818550638,40.749859834
BEDFORD VILLAGE SERVICE STN INC,-73.660054381,41.192948693
TASTE OF LEX CORP,-73.94431154,40.794668147
BHAKTI 2034 INC,-73.853132526,40.710931593
NOBLE DELI GROCERY CORP,-73.870260107,40.832556277
BRIYANA ORGANICS DELI CORP,-73.95331647,40.681178226
JOSIE GREENS OF NY INC,-74.014695303,40.713919741
STEW LEONARDS YONKERS LLC,-73.863444607,40.976112474
RAFAEL DELI GROCERY CORP,-73.917695309,40.684654075
NKEMAKOLAM DANIEL,-74.078965389,40.638088496
PRIMITIVA LLC,-73.655950266,41.19564402
ECKERD CORP,-73.931157316,41.717580479
FIRST HEALTH FRESH GOURMET INC,-73.896616164,40.816185791
AGEWELL LLC,-76.108790262,42.797979509
EXPRESS DELI GROCERY INC II,-73.947336485,40.633909405
I CHEF CORP,-73.377582024,40.685496416
HEBA MARKET CORPORATION,-77.635919125,43.146767641
KY FISH INC,-74.171420631,41.340566162
NORTH COUNTRY CREAMERY LLC,-73.45194253,44.513979968
ADVANCED DOMINO INC,-73.954933339,40.610053921
ZOE SAN,-75.132186979,42.170020273
260 BURNSIDE DELI INC,-73.902448459,40.851391922
SAINSBURY C STORE INC,-73.999475862,41.230248623
SPRINGS FINEST DELI CORP,-74.009296016,40.725898194
ALISAN GAS CORP,-73.006480801,40.766100553
KEVIN ADRIAN SMART MARKET CORP,-73.947785168,40.687411805
FARNAN KENNETH F & EILEEN M,-77.084938491,42.550268831
CHESTNUT MARTS INC,-73.907152467,41.589357309
SHEBA GROCERY & DELI INC,-73.676756161,42.775297366
ME-ME SUPERMARKET INC,-73.930645098,40.765469536
VAN WYCK EXPRESS MART INC,-73.806400818,40.68291789
SPEEDWAY LLC,-78.96185616,43.021344907
ALPHA EUROPEAN GROCERY INC,-77.703946316,43.210608155
AK TWO CORP,-73.971484664,40.616468215
T&H MARKET FRESH FRUITS AND VEGETABLES C,-74.096245521,40.589042334
MULBERRY MARKET INC,-73.995913972,40.723152282
DECICCO ENTERPRISE LLC,-73.628332817,41.418992738
SEA BREEZE PHARMACY & MEDICAL SUPPLY INC,-73.955831292,40.577868419
FAMILY DOLLAR STORES OF NEW YORK LLC,-78.005010531,42.976990767
SINAPPLE ENTERPRISE INC,-73.88761576,40.759204901
CUMBERLAND FARMS INC,-73.583777721,43.31015784
CHALOUH INTERNATIONAL FOOD INC,-73.970651419,40.60450309
GLATT KOSHER WHOLESALERS LLC,-74.024863222,41.105265939
CONGRESS SUPERMARKET INC,-73.951945106,42.796683457
AZ GROCERY AND MEAT INC,-73.825255071,40.690302598
WORLD GROCERY INC,-73.893476135,40.865008366
NEW DAY COFFEE ROASTERS LLC,-78.878248603,43.082932491
NOR CROSS SERVICE STATION INC,-73.803314098,40.782258781
EJ MEAT MARKET CORP,-73.748087079,40.598040936
RESERVE SNACKS INC,-73.869780243,41.588736419
5 BOROUGH MARKET II CORP,-74.025531092,40.622833139
BOSTON ROAD CANDY INC,-73.888265022,40.837269002
WALGREEN EASTERN CO INC,-75.932017684,43.97599695
FU LONG SEAFOOD WHOLESALE INC,-73.994307077,40.712836171
GENOVESE DRUG STORES INC,-73.917606461,40.878473474
DANDY MINI MART INC,-76.631456156,42.451236435
GB LICENSE LLC,-74.005462636,40.721257427
DOMINGA A YAT DE LEON,-73.990204052,40.643168013
FISH ISLAND LLC,-73.759470848,40.933063597
GRAB & GO GOURMET DELI INC,-73.941306208,40.838510027
LIBERTY SUPERMARKET & HALAL MEAT INC,-73.869610594,40.67843508
DOLGEN NEW YORK LLC,-76.723972753,42.614534559
K FAMOUS DELI INC,-73.932281665,40.772703914
SECOND STREET ENTERPRISE INC,-73.668779188,40.797587564
FRESH & TASTY SUSHI INC,-73.17636484,40.733344886
STEWARTS SHOPS CORP,-74.986571108,44.678603445
WALGREEN EASTERN CO INC,-73.888710353,42.698407235
SHUBH NY INC,-78.847543261,42.819996044
RINCONCITO CHAPIN CORP,-74.007341775,40.604451038
RUMBLE MARY,-75.674995005,43.899249604
GOURMET MINI MART INC,-75.909912929,42.100683703
FAMA FOOD CORP,-73.901121534,40.857281479
AHMED INTERNATIONAL INC,-73.967452717,40.76299897
KK FOOD MART INC,-78.789053,42.778722673
DOLLAR TREE STORES INC,-73.027017685,40.867814935
FAMILY DOLLAR STORES OF NEW YORK LLC,-73.779143204,42.668563175
BROADWAY STARS DELI CORP,-73.968425018,40.799997487
BEDFORD FLAMING GRILL INC,-73.94682829,40.600019903
WAL-MART STORES EAST LP,-72.94711434,40.880047386
ALIDORO CORP,-74.002874137,40.725728502
ABBOTSFORD ROAD COFFEE SPECIALISTS INC,-73.985348332,40.679227296
K&A PLUS OF NEW YORK INC,-73.892582037,40.770428605
SUSHI MARU EXPRESS INC,-73.781511476,41.273510356
SEHAR INTERNATIONAL INC,-73.540111442,40.680711982
A PLUS CONVENIENCE STORES INC,-78.337939977,42.035934172
535 8TH AVENUE CORP,-73.992416791,40.753956656
SAM GOURMET DELI & GROCERY CORP,-73.952693694,40.823811144
LOLYS PHARMACY INC,-73.904936376,40.858829017
DARIOS DELIGHTS CORP,-73.906516784,40.862536962
BOWMAN NICKY,-75.856565552,42.847961678
AEGIS VENTURE PARTNERS INC,-77.579192835,43.148248639
CVS ALBANY LLC,-73.709442734,40.689585107
CVS ALBANY LLC,-73.820720629,40.825602482
SALS PLACE DELI & GROCERY 1 CORP,-73.863665477,40.849412703
SAMMY GROCERY & DELI CORP,-73.893834797,40.850768392
HEAVEN FARM CORP,-73.925436332,40.663138191
DOLGEN NEW YORK LLC,-78.799434238,42.774952954
UNITED REFINING CO OF PA INC,-76.570232891,42.935176512
RITE AID OF NEW YORK INC,-73.969377118,41.504999656
DELI GROCERY SHEF PEPIN INC,-73.754586826,40.602152134
CONSUMERS BEVERAGES INC,-78.683287212,42.892461621
OUR COMMUNITY GROCERY CORP,-73.939083914,40.808170177
TINEO FAUSTO A,-73.924783885,40.704816701
HAR SIDDHI CORPORATION,-73.869382857,40.748850485
A PLUS CONVENIENCE STORES INC,-77.546767694,42.905305085
FROG POND FARMS LLC,-75.481514025,42.27429777
SULIMAN TOM MOHAMED,-73.988746355,40.688298233
REID STORES INC,-78.554449314,43.332902386
99 CENTS FACTORY INC,-73.922420775,40.817148034
INNIS AVENUE KWIK MART INC,-73.902500595,41.714169002
JOHNSON GARY R,-75.615920944,43.974103059
CORNER STORE 1 CORP THE,-78.800721783,42.872118951
BOBS COUNTRY STORE LLC,-74.776383152,42.741491139
SAN MIGUEL PLCKS DELI LLC,-74.133169397,40.631952021
VANA MARIA DELI INC,-74.024180097,40.626148056
FORT MONTGOMERY SERVICE CENTR INC,-73.987331839,41.33096603
PBRS WEBSTER INC,-77.431949953,43.211698473
SENCION VILLEGAS MORALES,-73.869142632,40.871638619
GUMENI GROCERY STORE LLC,-77.629153755,43.146503904
MANGO RICO MARKET INC,-73.890089595,40.749031701
CVS ALBANY LLC,-73.932884826,42.715430042
SEANS QUALITY DELI LLC,-73.867375056,40.897686263
PENNSYLVANIA DELI GROCERY CORP,-73.893875533,40.66491901
FRANCIS W MURPHY INC,-76.421188152,42.713785387
OCOA DELI GROCERY INC,-73.86328804,40.830404768
KELKENBERG FARM OF CLARENCE LLC,-78.643151977,43.05836287
HVBK LLC,-73.882618218,41.210506894
99 JOHNS MARKET PLACE INC,-74.006216924,40.708133336
SIX FLAGS DARIEN LLC,-78.39075257,42.928782254
CUMBERLAND FARMS INC,-73.635402868,43.300450087
CVS ALBANY LLC,-73.778443399,41.126065297
NEW DREAMLAND DELI CORP,-73.907537616,40.709758001
ELIS GROCERY CORP,-73.865337332,40.753130326
PACO MEAT & FRUIT MARKET CORP,-73.889597158,40.844533639
G & M FRIENDS DELI GROCERY LLC,-73.87498046,40.829234193
VITAMIN SHOPPE INDUSTRIES INC,-74.010104367,41.096083522
HALSEY & LEWIS LLC,-73.938880653,40.68596161
NFM BROADWAY LLC,-73.979103311,40.78461288
MON HTARNI,-78.897711131,42.956542653
MUSA GOURMET DELI CORP,-73.922667454,40.836122064
STOP SMOKE IN SHOP CONVENIENCE CO,-78.867176445,42.940271074
KA WING HONG CORP,-73.983243217,40.612361124
NEW YORK FOOD MARKET INC,-73.870632515,40.748914942
BURGANDY & WHITE MKTS INC,-73.958059118,40.781642585
RED BRICK SERVICES INC,-74.421214841,41.44652926
TUG HILL ARTISAN ROASTERS LLC,-75.490224834,43.784761356
OCEAN LAKE FOODS INC,-72.650713672,40.936702824
IMPERIAL MEAT MARKET CORP,-73.950226733,40.594277839
MOM & SON INC,-73.844390537,40.721092597
ARCANGEL DELI GROCERY CORP,-73.984936445,40.638691197
AL MALIK EXOTICS LLC,-73.455795196,40.680145533
EV ENTERPRISES LTD,-73.895301462,40.746319653
FOUR NIECES LLC,-73.926241581,40.616921131
SS GROCERY STORE INC,-75.918810068,44.327181594
JEROME AVE DOLLAR DISCOUNT & GROCERY COR,-73.904289628,40.857364824
7 STARS SEAFOOD MARKET INC,-73.963650602,40.649102149
MIRABITO HOLDINGS INC,-76.095475152,42.089756265
JULIE & C INC,-73.987014403,40.747696506
"KPH HEALTHCARE SERVICES, INC.",-76.188553207,43.101229851
L & H 177 CORP,-73.987125044,40.703193671
A&P BEVERAGE CORP,-74.413679426,41.467120369
S&N DISCOUNT INC,-73.941967624,40.794973332
GNN DELI CORP,-73.95575334,40.577844531
AAA GPO INC,-73.703939092,40.659147105
BIG LOU DELI & GROCERY CORP,-73.753686777,40.700404048
NEW JUABEN AFRICAN MKT LLC,-73.856568185,40.894488902
WALGREEN EASTERN CO INC,-78.868990456,42.958918001
A PLUS CONVENIENCE STORES INC,-78.530361987,42.939314154
CUMBERLAND FARMS INC,-73.675510862,43.297681628
SPEEDWAY LLC,-72.425176498,40.89268453
DOLGEN NEW YORK LLC,-78.412544699,42.525450141
CHOCOLATE DUCK LTD,-73.445976215,40.732075279
PLAZA PIAXTLA BAKERY INC,-73.908546965,40.703447014
ALL AMERICAN MARKET OF CNY INC,-76.152083295,43.065470053
CEDAR RUN BAKERY LLC,-73.794498599,44.25702037
MIKE DELI & GRILL CORP,-73.943263383,40.708691194
JOHNS FAMILY FISH MARKET CORP,-73.977201625,40.596418619
STW GRILL & DELI INC,-73.98039974,40.613425123
CH BUTCHER INC,-73.939645502,40.668495358
CVS ALBANY LLC,-76.179432103,42.597273245
DOLCO FOOD CORP,-73.840544165,40.685692551
NATURAL FOODS TRADING NY INC,-73.491294316,40.726289964
F&R GOLDFISH CORP,-73.950238048,40.594335255
WNY PALMYRA INC,-77.225348278,43.063791996
CUMBERLAND FARMS INC,-73.939703421,42.764907997
SPEEDWAY LLC,-73.184875005,40.836428981
LISA DELI AND GROCERY INC,-73.898258346,40.69922681
A&S BAGELS INC,-73.668083993,40.706633521
SPEEDWAY LLC,-74.160139176,40.626872084
OM SAI MART INC,-74.735756905,41.773924093
MODEL ORGANIC FARM FOUNDATION THE,-73.534752975,41.897755271
LA POTENCIA DELI GROCERY STORE CORP,-73.913080149,40.831042966
ALDI INC,-73.4811269,44.698680912
MORENITA DELI & GROCERY CORP,-73.881879269,40.830828264
THREE AUNTIES INC,-73.903401482,40.744668921
FISH PLACE OF COPIAGUE CORP THE,-73.398372621,40.693000523
BUSY BEE STORES CORP,-73.228779814,40.731050801
BROIKOU MICHAEL,-77.429891777,43.214654645
ROYAL AFRICAN & CARIBBEAN FOOD INC,-73.883315508,40.867651306
1781 LEX GROCERY CORP,-73.944099561,40.795003465
AS FULTON FOOD CORP,-73.949247559,40.680502644
ECKERD CORP,-76.273472279,43.039884462
STOP&SHOP SUPERMARKET CO LLC THE,-73.534379142,40.857514358
CANZONA MARKET LTD,-73.919720209,41.035067207
DOLGEN NEW YORK LLC,-73.911382562,41.745516817
120 FRESH MARKET INC,-73.82308114,40.686810026
TOPS MARKETS LLC,-73.899438015,41.947292235
124 MEAT FOOD CORP,-73.906529105,40.862653973
TIENDITA HISPANA CORP,-73.258311019,40.886471528
MIN ASIAN MARKET LLC,-78.890420384,42.917092095
VERONA OIL CO INC,-75.0223881,41.970066841
756 JOMO FOOD CORP,-73.943140252,40.825953768
HOT TIMES GROCERY CORP,-73.904300357,40.858397978
BEYOND NATURAL MARKET INC,-73.94128869,40.707645971
ALAM & BROTHERS INC,-73.922222962,40.743870042
CARNICERIA EL TORITO CORP,-73.89431684,40.850991309
I HOME WOOD CORP,-74.107406612,41.518797694
FAMILY DOLLAR STORES OF NEW YORK LLC,-77.579579408,43.169243547
FERNANDEZ & FERNANDEZ DELI GROCERY CORP,-74.160272616,40.631707898
ASIA SUPPLY CO INC,-73.91421355,40.717078923
DOLGEN NEW YORK LLC,-75.752750484,43.070655224
NAMDOR INC,-74.002342892,40.732920845
RIVERSIDE GOURMET DELI INC,-73.885383575,40.959453974
A 602 FOOD CORP,-73.932434718,40.851745513
SELDEN DRIVE THROUGH CONVENIENCE INC,-73.03808984,40.866563376
SHOP-RITE SUPERMARKETS INC,-74.210447946,41.51130532
KING KULLEN GROCERY CO INC,-72.733781493,40.828226982
ANGEL GROCERY AND BAKERY INC,-74.04066839,41.505096509
STEWARTS SHOPS CORP,-73.777007411,42.705733982
DOLLAR TREE STORES INC,-76.216172584,42.570843428
GG HOLDINGS INC,-78.824948081,42.914306704
DOLGEN NEW YORK LLC,-73.384956631,40.702887229
KRISHNAN CORP,-73.805801009,41.672776608
DUANE READE ETAL PTRS,-73.972278933,40.793535752
CVS ALBANY LLC,-74.157558723,40.626582741
MEDFORD VILLAGE MARKET INC,-73.002527101,40.810351484
SHOMER SHABES SUPERMARKET INC,-73.994935636,40.632515955
QUEEN ANN MACARONI MFG CO INC,-73.99427179,40.614886508
ALGABRI SAMHAN,-77.635678229,43.14111258
GOLDEN LOTUS FOOD STORES LLC,-75.216778348,43.089822382
TWIGGS CONVENIENCE & SMOKE INC,-73.73532932,40.803840715
AYUSHI INC,-74.153813186,41.116332985
DOMINICAN CANELAS DELI CORP,-73.580213736,40.659574373
NORWICH SERVICE STATION INC,-73.53594111,40.842613136
A&A QUALITY DELI CORP,-73.763408444,40.597613375
LA BONITA GROCERY STORE CORP,-73.899167112,40.857267469
WEGMANS FOOD MARKETS INC,-76.222740224,43.132501726
DOLGEN NEW YORK LLC,-77.138469516,42.969817828
DOMINICKS MARKET INC,-76.137501046,43.054499232
1154 NP MINIMART INC,-73.966252428,40.629397007
B&B GROCERY & HALAL MEAT INC,-73.807036417,40.7014354
EAST MEADOW CORP,-73.549601684,40.724757961
BAY RIDGE FISHBAR CORP,-74.028332324,40.630550902
DOLGEN NEW YORK LLC,-76.144695317,43.115405912
DOLGEN NEW YORK LLC,-77.742079197,43.028986311
DOLGEN NEW YORK LLC,-73.511945649,44.653471943
STROBEL FARMS LLC,-78.738568797,43.234852056
WALGREEN EASTERN CO INC,-73.84563877,40.785319643
RITE AID OF NEW YORK INC,-79.166715238,42.544731033
JMMD DELI CORP,-73.807004482,40.701899212
HIGHLAND PARK GROCERY CORP,-73.891138087,40.68103062
POR LA GRACIA DE DIOS TRES LOCHES CAFE I,-73.937778936,40.793558467
PAULINO FRANKLYN M,-73.855997545,40.740893963
GOJI LLC,-77.843583123,42.736069557
JS ORGANIC MARKET CORP,-73.933654324,40.669208828
MACARENO CENTRAL INC,-74.023544916,40.635081069
TASTY SPOT CORP,-73.952190864,40.59942768
WILSONS BREAD LLC,-73.712053361,43.130214975
S&V CONVENIENCE INC,-73.196529938,40.855127653
APPLE FARM FISH MARKET LLC,-73.782984714,41.037647785
SUNNY DELI INC,-73.907088011,40.877971775
OMNI HEALTH INC,-73.974363093,40.596991186
WEIS MARKETS INC,-76.072267124,42.11152142
SPEEDWAY LLC,-76.918624014,42.893450434
IT' SUGAR LLC,-73.305409184,40.764263757
AVICO DISTRIBUTING INC,-75.214306831,43.100228842
DOLLAR TREE STORES INC,-73.918033435,40.839426923
GROCERY EL ROCIO CORP,-73.874394313,40.750920941
GENOVESE DRUG STORES INC,-73.994357788,40.681310324
C H PETROLEUM INC,-74.260121471,41.454570973
AHMAD SYED&SALMA,-73.188475675,40.826227453
ALAND GOURMET DELI 2 INC,-73.864983867,40.837828913
CVS PHARMACY LLC,-73.09388247,40.858633928
ANR STORES INC,-73.60912183,40.744446046
STEW LEONARDS FARMINGDALE LLC,-73.419036778,40.737384293
PEARL RIVER SHOP RITE ASSCTS INC,-74.011674968,41.060817629
DOLLAR TREE STORES INC,-73.298026572,40.70841983
TOPS MARKETS LLC,-74.070329431,41.743060416
TWO DELI CORP,-73.8967403,40.674275309
M&S KOLEL GROCERY INC,-74.025549029,41.138766269
ADIRONDACK CORNER STORE LLC,-73.979480413,44.271421653
86 TOBACCO & CONVENIENCE CORP,-74.028008615,40.623138324
WALGREEN EASTERN CO INC,-73.912204408,41.596308128
BOLLA OPERATING LI CORP,-73.529528283,40.778144985
ANA & ALEX MEXICAN DELI GROCERY CORP,-73.904105226,40.828171913
DOLLAR TREE STORES INC,-78.735861945,42.158649551
SEVEN&ONE DELI GRY FULTON ST CORP,-73.940508335,40.680029947
TARGET CORPORATION,-73.673518316,40.991656618
BROTHERS FRESH FRUITS&VGTBLS CORP,-73.837095515,40.941355224
EL TESORO GROCERY CORP,-73.929301898,40.856327103
MIDWAY OIL CORP,-73.657924875,43.304232253
GAZA DELI & GRILL CORP,-73.918519669,40.7355821
ADVANCED FRESH CONCEPTS FRANCHISE CORP,-78.757551712,42.962496026
LA SAN MARQUENITA GROCERY&VARIEDADES INC,-73.915190461,40.701682205
MECCA HALAL MARKET INC,-77.615466443,43.18569454
NORTHERN ORCHARD CO INC,-73.533128143,44.556612849
FEDERS SUPERMARKET INC,-74.166865905,41.34354421
SUNNY GROCERY YILDIZ CORP,-73.918519921,40.74480257
SONBYRNE SALES INC,-76.218262,42.684057
HUBBARD TIMOTHY & BONNIE,-73.309421518,43.577894351
COMMACK COUNTRY MART INC,-73.294080623,40.836236184
97-01 FOOD CORP,-73.869872025,40.751925428
NS SUPERMARKET INC,-74.025472838,41.139404928
YDHNY INC,-73.95301245,40.808032418
STEWARTS SHOPS CORP,-73.81794823,42.655060223
2556 BOSTON FOOD CORP,-73.863326429,40.864599036
GOOD NEIGHBOR DELI & GROCERY INC,-73.916150776,41.702860474
BRONX 656 FOOD CORP,-73.847914121,40.820151018
PELLEGRINOS OF COLONIE INC,-73.805704114,42.6945182
600 TULIP AVE INC,-73.688518653,40.717434441
LEMPA RIVER DELI INC,-73.035368152,40.781569453
GAZA CONVIENCE INC,-73.960733951,40.649716123
MUNTAZ RAMJOHN,-73.818812153,40.692136558
CRUZ AARON,-73.925057554,40.702495417
THOMPSONS CIDER MILL INC,-73.829221806,41.216091086
CHONS FRUIT&VEGETABLE CORP,-73.884430134,40.745992675
STOLTZFUS MARY B,-77.269612773,42.110748399
HOLA MARKET INC,-73.803959672,40.759625631
TOPS MARKETS LLC,-73.761518772,43.837529284
86TH ST GOURMET DELI & GRILL INC,-74.002365942,40.607309938
CVS ALBANY LLC,-77.46223905,43.101946462
KUIS FISH MARKET INC,-73.951428865,40.680382741
THREE TIMES C FOOD CORP,-73.917294822,40.849506623
GREENE AVE MARKET INC,-73.972660058,40.686050961
ADIRONDACK PETROLEUM INC,-73.506246541,44.695439085
M&L FAMILY DELI GROCERY CORP,-74.003623311,40.644859523
CANISTEO SHURFINE LLC,-77.607325771,42.275083113
CVS ALBANY LLC,-73.041843592,40.864703684
5529 GREIG RD LLC,-75.358635744,43.68882029
PATEL MAHESH,-73.881606941,40.763886278
TRADER JOES EAST INC,-73.987835511,40.733501963
CENTRAL VALLEY DELI INC,-73.979787442,40.766180908
CELL-NIQUE CORP,-73.75276569,42.540580818
STEWARTS SHOPS CORP,-73.681284568,42.579884526
WALGREEN EASTERN CO INC,-76.19268515,43.050409911
MANNY & SAMMY DELI GROCERY CORP,-73.866937856,40.850773589
STEWARTS SHOPS CORP,-73.831664042,42.971238183
AADHYA FOOD INC,-73.881626136,40.742434096
TAPSCOTT FINEST MEAT CORP,-73.919393734,40.662133745
AMAL DELI CORP,-73.920697371,40.827461672
DOLLAR TREE STORES INC,-74.688859738,41.36909355
SANAM FOOD & FUEL INC,-73.023929924,40.764543295
LOS MELLIZOS GROCERY STORE CORP,-73.919051082,40.830578064
DARBAR DELI & GROCERY INC,-73.817263261,40.70764618
7&7 GROCERY DELI INC,-73.739797628,40.705934805
MIRABITO HOLDINGS INC,-74.754402449,42.797255145
FRESH FRUIT BOWL DELI CORP,-73.668583135,40.588127114
HERONDALE FARM INC,-73.569140403,42.067485793
BROOKLYN FINEST MINI MARKET CORP,-74.019617743,40.62188372
KRASZEWSKI HENRY,-72.365529701,40.901933164
RITE AID OF NEW YORK INC,-77.331694093,42.338296618
AL GHAITHI ADEL N,-78.881063917,43.041003152
HORN ERIC,-75.187128258,43.327446144
SOHO FINEST MARKET CORP,-74.004658057,40.722615589
DRAKE PETROLEUM CO INC,-73.713706524,43.401383834
LANCASTER GROCERY LLC,-78.672895338,42.901652646
DANIELS FARM CORP,-73.963112484,40.606822488
SAHUAYO BAKERY CORP,-73.874227011,40.742247012
DRAKE PETROLEUM CO INC,-73.787864993,43.071192379
EL RANCHO MARKET CORP,-73.896552042,40.867328896
BEEKMAN 55 FOOD MART CORP,-73.867281598,41.606901177
ASTORIA GOURMET DELI NY INC,-73.917070438,40.769730686
NADEEM INC,-73.984476865,40.692230394
J.F. SANTOS BAKERY LTD,-73.891924896,40.929489509
SUPERLOST COFFEE LLC,-73.948193786,40.699895015
PRRC INC,-77.643236945,43.088363923
ALTAMONT BEVERAGE CORP,-73.953722489,42.780853395
MONROE COMMUNITY COLLEGE ASSOC INC,-77.610634024,43.097221583
FRENCH DAVE & TAMI,-75.27355057,44.505200423
VALUE DRUG STORES INC,-73.426957844,40.870283978
300 W 145TH FOOD LLC,-73.942592579,40.822927063
KANAN DELI & GRILL CORP,-73.935787647,40.795793333
CALIFORNIA GRILL AND DELI CORP,-73.955991135,40.814057584
AAM SEAFOODS CORP,-73.874378388,41.640483733
ALEGRIA GROCERY DELI CORP,-73.916577415,40.672600605
GBR MART INC,-74.419790401,41.44029356
MIRABITO HOLDINGS INC,-76.039376955,42.21311126
KINGS POINT SPECIALTY FOOD LLC,-73.723466244,40.787138851
MARTINS FOODS OF SOUTH BURLINGTON LLC,-73.990262642,42.292821273
772 PALISADE MEAT CORP,-73.88511284,40.960068661
TOPS MARKETS LLC,-73.833800505,42.362694159
WHITE PLAINS BROTHERS MEAT MARKET CORP,-73.854445635,40.898018522
A & H DELI & GRILL CORP,-73.995736443,40.645144717
FINGER FOOD PRODUCTS LLC,-78.920280411,43.114001482
161 SHADDAD INC,-73.90919958,40.822470836
ISLAND FARM MEAT CORP,-73.996687541,40.663392565
LOVER JUICE BAR LLC,-73.900554233,40.854273914
TWIN MOUNT SERVICE STATION INC,-73.830136859,40.835069884
ANGIE DELI GROCERY F&C CORP,-73.951491897,40.711045964
SWEET HOME AFRICAN MKT INC,-73.888922079,40.873239017
ROSES QUICK STOP LLC,-76.759996748,43.067403884
TOTAL CARE II INC,-73.861017383,40.831931741
ALDI INC,-73.094853306,40.762289326
MIRABITO HOLDINGS INC,-76.203590592,42.997481713
GERLACH BEVERAGE INC,-73.854156795,41.680594618
TOPS MARKETS LLC,-77.790128373,43.285981916
DELTINO HP INC,-72.983169767,40.952216872
JALAPENO BROTHERS MARKET INC,-73.901038959,40.643833033
WHOLE FOODS MARKET GROUP INC,-73.982640726,40.768364016
SUSHI MARU EXPRESS INC,-73.419036778,40.737384293
FRANCIS LEWIS SERVICE STATION INC,-73.780298314,40.753685586
PENN KING CONVENIENCE INC,-73.891742171,40.659772773
LOS PRIMOS DELI 201 CORP,-73.229866611,40.779212043
NEW GRACE FARMERS MARKET INC,-73.910473629,40.669238959
ONE STAR GROCERY & DELI CORP,-73.918830554,41.290557883
NILKANTH DELI & GROCERY INC,-73.875548334,40.711755702
C&V DELI GROCERY CORP,-73.850881315,40.839827578
JOLLEY ASSOCIATES CORP,-73.699806479,43.363566572
AMSTERDAM GOURMET DELI & GROCERY CORP,-73.94781375,40.825498505
BARRY GROCERY LLC,-73.851130341,40.831441149
SUSHILOVER INC,-73.900772582,40.933022313
MO & HAMZA DELI CORP,-73.898020049,40.817183364
1158 GROCERY & DELI INC,-73.866640885,40.829523453
TARGET CORPORATION,-73.889397417,42.775176038
1576 FINEST DELI CORP,-73.953532136,40.775132361
KOSHER CONVENIENCE INC,-73.961652356,40.617718124
WALGREEN EASTERN CO INC,-73.909235035,40.885635349
511 MH-AG HOLDINGS LLC,-72.127241498,40.979449465
TWIN CITY MARKET INC,-78.848888976,42.911223589
36TH FOOD & GRILL INC,-73.940758199,40.626060465
WOODSTOCK MEAT MARKET INC,-74.11501344,42.039631429
GEE MART INC,-73.495385774,44.695996817
DUANE READE,-74.011852245,40.711790654
5 STAR GROCERY AND HALAL MEAT INC,-73.96006935,40.581032378
JYOTI INC,-73.893757816,41.694221162
I LOVE MY DELI GROCERY INC,-74.089237412,40.60916544
IRISH MINI MARKET INC,-73.871531307,40.906540989
GOLDEN VILLAGE MARKET INC,-73.918310457,41.091430099
YI JIE SHA GROCERY INC,-74.004210883,40.637005009
NAPOLI SPECIALTY CONCEPTS INC,-77.665006508,43.16500792
2673 PITKIN DELI INC,-73.873308941,40.675330716
BRANDO GROCERY DELI INC,-73.880839913,40.683303583
NAGI MASTAFA,-73.777827748,42.639293821
TOPS MARKETS LLC,-76.573090282,43.323187592
SRM PRODUCE & MEAT LLC,-74.212505954,40.551427957
UNITED REFINING CO OF PA INC,-76.367587725,42.589001061
W CANDY CORP,-73.918639195,40.818851446
HUDSON GROUP (HG) RETAIL LLC,-73.9926754,40.7482307
ALJALAL OMAR S,-73.943285176,40.725839478
1667 NICKS DISCOUNT STORE INC,-74.00845925,40.605439642
1978 FIRST AVE NEWS STAND CORP,-73.941919261,40.786777842
G&G ITALIAN MEAT MARKET INC,-74.134999669,40.625749622
LOUS PRODUCE LLC,-74.6669507,41.649413771
OB DELI INC,-73.792009509,40.680693752
YESHIVA FARM SETTLEMENT INC,-73.745852786,41.229408351
G&G GROCERY STORE INC,-73.878364905,40.736469995
RETAIL MANAGEMENT INC,-73.662244991,40.740972334
PRINCE ABOUS BUTCHERY LLC,-73.920989555,40.756636083
DOLGEN NEW YORK LLC,-78.037529298,43.318603026
MT KISCO FARM INC,-73.728283995,41.207554159
25 JAMES STREET LTD,-75.918171367,44.337381406
RYZE COLLECTIVE INC,-73.915318788,41.304288488
AYLIN GROCERY STORE INC,-73.909838364,40.834132284
ASIM DELI & GROCERY INC,-73.952763516,40.710528801
BIG LOTS STORES LLC,-74.984827086,44.68597709
Y K CHOICE DELICATESSANS CORP,-73.786992605,40.900015259
TOPS PT LLC,-75.7578979,43.0848131
WALGREEN EASTERN CO INC,-73.828663488,40.582589023
SUPER BAGELS INC,-73.991209797,40.636106259
1095 LOUDON INC,-73.743002365,42.783695698
AMAZING GRACE GROCERY CORP,-73.89639815,40.74582357
NAZARENO DELI GROCERY CORP,-73.709114582,40.708418489
DOLGEN NEW YORK LLC,-73.914033675,41.784157516
ST JAMES STAR INC,-73.143574751,40.86156156
MICHAEL JOHNS MINI MKT&DELI LLC,-77.668637716,42.363589305
US BANGLA GROCERY INC,-73.963468379,40.635332736
POP A LICIOUS LLC,-73.957334816,41.060013675
ARNOLD JASON,-74.032004016,42.969449066
BROOKDALE GOURMET DELI CORP,-73.914050941,40.657231547
SPEEDWAY LLC,-75.280072254,43.077088171
CONTINENTAL GLATT KOSHER MTS CORP,-74.051098243,41.116694958
CHARO WEST INDIAN AND AMERICAN GROCERY I,-73.871057478,40.679091132
CONTINENTAL GLATT MEAT CORP,-73.95704122,40.69830128
K & N DELI GROCERY CORP,-73.944820656,40.824260079
BJS WHOLESALE CLUB INC,-76.232744277,43.190111636
METRO ORGANIC INC,-73.962287621,40.716306991
ROCKAWAY EXPRESS DELI CORP X,-73.814499329,40.586725702
A PLUS CONVENIENCE STORES INC,-77.65532541,43.164999286
D & A DELI GROCERY CORP,-73.885241502,40.873480249
VINCENT FARMS 9 INC,-73.993146771,40.602351707
WAL-MART STORES EAST LP,-75.039092533,42.447442786
SAMMY STOP AND SHOP CORP,-73.968751486,40.639345909
BERITOS II DELI & GROCERY CORP,-73.990056028,40.599474577
203 PARKSIDE DELI GRO&LUNCH CORP,-73.961015248,40.655408609
BREWSTER GAS CORP,-73.577852805,41.42511027
LISA DELI & GROCERY 2019 CORP,-73.969372089,40.693242844
SBF FISHERY INC,-73.897840927,40.851727953
LA FAMOSA DELI GROCERY 206 INC,-73.576971448,40.669180788
FAMOUS DOUGHNUTS INC,-78.829341707,42.947595139
JAVID ENTERPRISES INC,-73.96811078,41.094316198
GALADRIEL ENTERPRISES INC,-75.084412394,43.324620227
BOLLA OPERATING LI CORP,-73.641414788,40.704443246
MERMAID GARDEN INC,-73.969274356,40.677106004
GREAT NECK QUICK STOP INC,-73.733622345,40.773455771
JINBO HOLDINGS INC,-73.819548755,40.764973327
STEWARTS SHOPS CORP,-73.342250499,42.927794905
WEALTH OF HEALTH INC,-73.957930372,40.598800043
CAMILLUS SUNOCO INC,-76.307169123,43.03933662
ZHEN ZHEN GROCERY INC,-73.825853036,40.745899636
CHATZI CHINAM INC,-73.900636376,40.700396505
ALDI INC,-78.395734205,43.206306018
79 GREEN APPLE CORP,-73.99232987,40.69806688
LUCKY LOTTO GOURMET DELI & GROCERY INC,-73.989508186,40.619997792
ACTIVE INGREDIENT BREWING COMPANY,-73.792037672,42.966910313
A&J 152ST FOOD LLC,-73.904133054,40.815306781
GOLDENS FRESH MARKET INC,-73.780913378,40.909618405
4 S SINGH CORP,-74.418247395,41.411579741
NEYMAR FARMS II LLC,-73.930572343,40.651608254
PINE FUEL STATION LLC,-79.026174023,43.094954739
HELENS GRNHSE & FLOWER FARM INC,-72.644064619,40.95091994
FELLER ARNOLD JR,-73.735391879,42.139488156
LWIN FAMILY CO LLC,-73.77787016,40.779912686
SHRIJI HARI CORPORATION,-73.985584198,42.790822369
APPLE GOURMET DELI INC,-73.933830556,40.751369624
LA BANDERA MARQUETA & DELI CORP,-73.789506089,40.909954337
WAL-MART STORES EAST LP,-77.68846888,43.133549925
COZY CORNER RESTAURANT CORP THE,-73.570736569,40.715551908
183 GOLD FISH MARKET CORP,-73.904488866,40.858461974
HUNTINGTON BEER WORKS LLC,-73.425315411,40.874971431
WALGREEN EASTERN CO INC,-77.445896267,43.209739538
RITE AID OF NEW YORK INC,-78.859185557,42.959105588
AVE J GRILL ZONE CORP,-73.961158662,40.625090385
AMAZE MEAT MARKET INC,-73.996306245,40.71746252
COLOMBIA CUYABROS DISTRIBUTION INC,-73.58242857,40.654133847
F.I. VILLAGE MARKET INC,-72.022553601,41.272761359
GEORGI SEAN & RAE,-78.84152933,42.586787442
432 EMPIRE GOURMET DELI GROCERY CORP,-73.979952984,40.738847144
ADVANCED FRESH CONCEPTS FRANCHISE CORP,-76.486528607,43.462546036
SIMON GUADALUPE,-73.91983655,40.741585428
JRS DELI MARKET FOOD CORP,-73.787906043,40.921334188
CARVE DELICATESSEN CORP,-73.945811984,40.620246777
QUEENS SHOPRITE ASSOCIATES LLC,-73.835689451,40.783056529
AKHB INC,-74.019664346,41.059082365
DOORDASH ESSENTIALS LLC,-73.956673338,40.6906626
MAINSPRING LLC,-78.861021948,42.86650974
FAMILY DOLLAR STORES OF NEW YORK LLC,-76.115901887,43.05160429
MUSAED DELI INC,-73.941469991,40.597228771
LO TIGER GROCERY CORP,-73.907456311,40.844645789
PEREZ JOSE A,-73.906239091,40.692061079
725 COMMACK GROCERS LLC,-73.231441236,40.758932657
NEW BEST FRUIT MARKET INC,-73.948601481,40.633481341
BELLPORT MARKET CORP,-72.943514899,40.774186401
EMMONS DELI INC,-73.950617916,40.583614926
181 AVENUE U MEATS INC,-73.977317714,40.596658425
RODRIGUEZ FAMILY GROCERY CORP,-73.90648795,40.670448761
SPEEDWAY LLC,-77.653765705,43.05441097
EL CATRIN LLC,-73.918297549,40.81509057
MPW ENTERPRISES LLC,-74.114314976,41.114775669
EL ECONOMICO CORP,-73.631696977,40.707015694
ASIAN ONE BEST GROCERY INC,-73.068114961,40.835347531
BRIGHTSIDE CONVENIENCE CORP,-73.938379918,40.796484254
AR DELI COFFEE SHOP INC,-73.976542304,40.681975303
RALPH FISHES OF THE SEA INC,-73.922262943,40.68136774
MI BEBE DELI GROCERY CORP,-73.903576915,40.861072895
STOP&SHOP SUPERMARKET CO LLC THE,-72.696494429,40.92368898
603 GOURMET DELI CORP,-73.976467873,40.744290855
STOP&SHOP SUPERMARKET CO LLC THE,-73.75535025,40.679476867
PORTER FARMS LLC,-78.154728421,43.062741409
PEMM LLC,-77.618217467,42.965235022
MERRIAM FOOD CENTER CORP,-73.924289268,40.843629903
CTAC HOLDINGS LLC,-74.001359862,40.736743245
RAINTREE CONVENIENCE LLC,-78.847299516,43.014608623
FAST FOODS 315 LLC,-76.156750422,43.065322951
STAR INK INC,-78.823150345,42.972473572
SV MART INC,-74.04447939,41.108178064
PICKLE GUYS INC,-73.989081631,40.716506858
BEDE INC,-72.663293794,40.91427208
ADAMS DELI ON KINGS HIGHWAY CORP,-73.963043584,40.606843527
CVS ALBANY LLC,-73.838448941,42.682534006
CORONA CAFE INC,-73.854678987,40.742438874
JJJ FISH INC,-73.991520765,40.684973509
STEWARTS SHOPS CORP,-74.987153064,42.854015214
MIDDLETOWN FOOD CORP,-74.421729657,41.441616752
HENRY CLIFFORD,-73.929708169,40.686889738
ROME RESTAURANT EQUIPMENT LLC,-75.442074656,43.196242705
Z MART FARMERS MARKETS INC,-74.020533885,41.098774616
BLOOMINGDALES LLC,-73.966527858,40.761949555
HICIANO BROTHERS GROCERY CORP,-73.829774469,40.844117043
HICKSVILLE FOODS INC,-73.505683529,40.743526174
3RD AVE FOOD GROUP LLC,-73.983584025,40.73793226
N & S 191 FOOD CORP,-73.768634309,40.712340675
RODRIGUEZ RICARDO,-73.864123548,41.080952972
S&S CHEESECAKE INC,-73.899863816,40.884736306
SAND CASTLE FOOD MART INC,-73.742300465,40.595552307
SONBYRNE SALES INC,-76.488426773,43.023541552
DOLGEN NEW YORK LLC,-75.586449921,42.969722987
TOPS MARKETS LLC,-77.292778731,42.906045168
FOOD AND DELI BY NEIL INC,-73.941032288,40.698712496
LA FLOR DE PUEBLA DELI & GROCERY CORP,-74.124570235,40.634067236
WALGREEN EASTERN CO INC,-74.14880916,41.844487659
CHAUHAN HOLDINGS INC,-74.498233431,41.566429488
LOCUST VALLEY MARKET LTD,-73.595785719,40.879692873
SOY BEAN CHAN INC,-73.874720621,40.734498864
HOLLAND GOURMET DELI CORP,-73.865352168,40.86305731
MANTON CONVENIENCE STORE INC,-73.818161969,40.709489151
MUSKA INC,-73.930302613,42.804017287
DIOMAR GROCERY CORP,-73.891901092,40.698066461
MOHAMED A SALEH,-78.826718339,42.922212222
KASADO GROCERY & DELI CORP,-73.882140365,40.935098678
KIMS MARINE PARK DELI & GROCERY CORP,-73.931916381,40.609548786
CVS ALBANY LLC,-72.645350905,40.812058207
YOUR FAMOUS DELI INC,-73.941928816,40.798449936
CARNEGIE SPECIALTY FOODS INC,-73.952151553,40.786654461
CASTEL EXPRESS GOURMET DELI INC,-73.851937602,40.834020386
ROBO IN FALCONER LLC,-79.196944739,42.119489215
MARY'S GROCERY AND TAQUERIA INC,-73.929581267,40.772228786
DOLGEN NEW YORK LLC,-74.175349041,41.563283632
SATMAR MEAT MARKET INC,-73.98336509,40.632904959
R&R FOOD STORES INC,-73.761271561,40.5997231
PANE PURO LLC,-73.935432506,40.683578551
126 FOOD CORP,-73.824537077,40.701130885
ANTHONYS PANINOTECA LLC,-74.150571988,40.550189615
SHAMBHU 22201 INC,-73.732366987,40.720536793
UNITED REFINING CO OF PA INC,-78.695977505,43.183458459
9-11 DELI CORP,-73.950085175,40.797306927
KANESHIE KENKEY HUT INC,-73.893737902,40.85967911
125 MAIN ESSENTIALS FOOD CORP,-73.902725565,40.869068182
QUICKCHEK CORPORATION,-74.026766752,41.942137909
THRYFT N THYME LLC,-73.89962644,41.694977294
TH PRIME ENTERPRISES INC,-73.838448941,42.682534006
JUST MEATS OF MALTA,-73.790399597,43.013564531
BORO PARK GROCERY CORP,-73.987973125,40.642682198
DELTA-SONIC CARWASH SYSTEMS INC,-77.505995183,43.187985273
RODRIGUEZ BANESA,-73.903008874,40.851512957
"KPH HEALTHCARE SERVICES, INC.",-76.297387526,42.495430565
CREATIVA LLC,-73.7650202,40.928611169
SKYLIGHT HOLDINGS INC,-73.891890614,40.864368994
STEINMANN ENTERPRISES INC,-73.792772346,41.300134166
WEGMANS FOOD MARKETS INC,-77.543326336,43.103947892
LEES FAMILY FARM CORP,-73.926786405,40.762778107
LUCKY CANDY & GROCERY CORP,-73.892141904,40.830005706
JFZ GROUP INC,-73.312791546,40.760048624
LADERACH USA INC/ LADERACH WALT WHITMAN,-73.410452704,40.822235891
"KPH HEALTHCARE SERVICES, INC.",-76.179808954,42.639950669
YOGI ORGANIC MARKET INC,-73.882296353,40.75008757
59-5 FRUIT & VEGETABLE CORP,-73.994069031,40.735090836
DELI & FOOD CORP,-73.890199719,40.869623311
788 GREAT NECK INC,-73.735971038,40.808351562
ROCHESTER INSTITUTE OF TECHNOLOGY,-77.681220378,43.083100255
SOODS INC,-73.941219623,41.118054796
D&M SMOKED FISH INC,-73.803125086,40.699872049
PJ HYDE&SON INC,-74.479950105,44.240736721
NEW MORRIS DELI GROCERY INC,-73.86440233,40.845435113
REAL WORLD DELI CORP,-73.908654001,40.638305042
HUDSON SAV MORE LLC,-77.601656838,43.166956586
MARTINS FOODS OF S BURLINGTON LLC,-73.88146294,41.980152774
SAN AGUSTIN BAKERY GROCERY INC 1,-73.938093676,40.797312679
BROAD STREET BAGEL CO LLC,-73.698634102,42.394994075
H MART ROOSEVELT LLC,-73.82487185,40.761003155
4121 CHURCH MEAT CORP,-73.938327699,40.651495015
NEW FIRST LINE CORP,-78.897262532,42.926619133
SHOP-RITE OF GARNERVILLE INC,-74.008960824,41.200064635
FRESH N SAVE FOOD CORP,-73.977876536,40.65666074
RUNA MOSAMMAT ZB,-73.980909779,40.642333301
SPOONS 716 LLC,-78.66162192,43.158168161
3821 FOOD CORP,-73.944137112,40.83609453
SHAWN B ENTERPRISES LLC,-77.196077414,42.861354366
7 ELEVEN INC,-73.860909005,41.143476689
ALZANAM ASSAMET,-74.008750941,41.931266245
ALDI INC,-77.657770411,43.224728854
FAMILY DOLLAR STORES OF NEW YORK LLC,-78.67789681,43.219526416
DOLGEN NEW YORK LLC,-76.730803421,43.234563754
STEWARTS SHOPS CORP,-74.487252,44.835127185
2257 EAST 16 CORP,-73.954681463,40.595439403
SPEEDWAY LLC,-76.233357161,42.098166911
LA GONDOLA DELI GROCERY INC,-73.885338481,40.875392119
TOPS PT LLC,-79.173023458,42.545808234
PITTSTOWN GROCERY INC,-73.469245803,42.846523301
COLDENHAM FOOD MART INC,-74.15250913,41.52601535
AMERICAN PETROLEUM DISTRB LLC,-73.509150116,40.665043313
GMI PORK STORE LLC,-74.211116067,40.550596724
J&HEE DELI AND GROCERY INC,-73.683132275,40.825810102
PARTH FOOD OF KINGSTON INC,-74.037931036,41.928748063
STEWARTS SHOPS CORP,-73.623889318,43.397972902
NEW LEADER HALAL MEAT 1 COPR,-74.013190164,40.64943973
DOVER KRISTIN & JORDAN,-78.018034287,42.306601374
BELLA TEJALPA DELI GROCERY INC,-73.88619486,40.855843383
J & R DISTRIBUTORS INC,-73.941082831,40.703818081
TRISUL INC,-73.046029263,40.897992454
HISTORY HILL INC,-73.764404214,42.655542853
STEINERS GENERAL STORE LLC,-75.861630484,43.93334794
LUS LICENSING LLC,-73.024035334,40.867944367
18TH AVE CONVENIENCE INC,-74.002654112,40.607079058
"KPH HEALTHCARE SERVICES, INC.",-76.211849701,42.583532204
HEALTHY MEALS DIRECT LLC,-73.382001842,40.738605787
SPEEDWAY LLC,-73.681204186,43.330308396
AYHAM DELI INC,-73.910898256,40.670858929
BEER & CIGAR OUTLET INC,-74.152750361,41.321495656
BOLLA OPERATING LI CORP,-73.549141601,40.757187964
CLARKSON DELI LLC,-73.927770776,40.656710025
BOLLA OPERATING CORP,-73.96213616,40.610493301
A&C SUPERMAS INC,-73.940453357,40.820010252
LIVING WELL GARDEN INC,-73.927565,40.670254259
CAPTAIN JOES FISH CORP,-73.493429438,40.770734628
DG GROCERY CORP,-73.922774826,40.816994184
ANTILLANA SUPERFOOD MEAT CORP,-73.941792191,40.837827698
CVS ALBANY LLC,-73.729372385,41.373683606
HEITMANN KIERSTEN,-73.788773005,41.535411464
PACIFIC MINI MART 1 CORP,-73.979216718,40.683458103
HEART TWO HEART COLLECTIBLES INC,-74.032419004,40.62057497
WALGREEN EASTERN CO INC,-73.830051866,41.291524945
DOLGEN NEW YORK LLC,-73.96680827,41.82806021
BHH ENTERPRISE INC,-73.990700596,40.720878104
BHAGAVATI CORP,-74.599520217,41.62380186
24 SEVEN SERVICES LLC,-73.929887709,40.616052263
SIMPELAAR FRUIT FARMS LLC,-76.233750776,43.48001673
MUHOVIC KASIM,-76.123170734,43.053983219
FOXY SOX LLC,-78.803352275,42.850157569
165 AND ANDERSON SUPERETTE INC,-73.926451799,40.833639596
C&W FISH CORP,-73.62378773,40.755778798
STILLWELL 86 DELI&GRILL INC,-73.985576236,40.59675993
M&R GROCERY & GAS INC,-73.816057953,41.747189692
CVS ALBANY LLC,-73.884322594,40.701531791
WALGREEN EASTERN CO INC,-73.87170783,40.965330904
DUANE READE ET AL PTRS,-73.987659474,40.770672015
HEALTHY ORGANIC MARKET INC,-73.942779412,40.691479585
CROSBY AVENUE DELI CORP,-73.831463714,40.845547766
SAN DIEGO DELI GROCERY CORP,-73.881791008,40.831534355
UTC PHARMACY INC,-73.914271961,40.814647862
2023 CONVENIENCE CORP,-73.917487019,40.82077853
VALLEY VIEW CHEESE CO INC,-79.0317671,42.262487962
UMA CONVENIENCE INC,-73.920289173,41.091509434
PEMM LLC,-77.431070692,43.160470837
A & E HEALTHY CHOICE CORP,-73.922908098,40.80942675
BIG LOTS STORES LLC,-78.478122676,42.547679555
SAJOMA DELI CORP,-73.581436907,40.653734156
J & K DELI NY CORP,-72.862909237,40.833772282
AVENUE D MINI MART INC,-73.928858244,40.642299941
FAMILY DOLLAR STORES OF NEW YORK LLC,-73.927197789,40.623789346
LOCAL GAS LLC,-75.646895813,42.898934471
BAER SALLY A,-79.326444724,42.104103981
HENU FOOD INC,-73.951032317,40.713951299
QUEENS PLAZA DELI CORP,-73.937387585,40.749878819
PREET FOOD MART INC,-74.462805928,41.296897033
NEW ZHONG HUA MARKET INC,-74.007933789,40.636862894
EXXON MINI MART INC,-74.415757635,41.519122408
DOLGEN NEW YORKLLC,-76.160084408,43.075823464
LOS PLATANITOS GROCERY & DELI CORP,-73.912518227,40.700204266
2732 CONVENIENCE GROCERY CORP,-73.967773409,40.80017468
MURRAY SUPERETTE INC,-78.046084958,43.274435887
SOTO DELI & GRILL CORP,-73.909800227,40.637566597
PRRC INC,-76.158373242,43.03295158
MAYSAA FORDHAM DELI INC,-73.898174192,40.861420199
WAL-MART STORES EAST LP,-73.420108069,40.726991068
BLACK OLIVE GOURMET INC,-73.918771713,40.83839708
RAY'S #1 DELI GROCERY LLC,-73.858402732,40.885644318
FOOTHILLS MARKET LLC,-75.548833197,43.793705853
NORTHERN ONE STOP CONVENIENCE INC,-73.812495551,40.765133463
RIVERSIDE MARKETPLACE INC,-74.016710564,40.710044494
FRESH GOURMET DELI INC,-73.959577668,40.69054341
JAV 9 FOODS INC,-72.150471356,40.973816994
TMN ONE CORP,-73.960138752,40.577720688
HJ MART INC,-73.792619081,40.682350198
WHITESTONE MARKET INC,-73.814691442,40.776707027
MR DESIGNS GROUPS INC,-73.399750857,40.685377433
HARLEM BAKING CO INC,-73.954436543,40.811726912
JULINA INC,-73.973905693,40.686243787
SALT CITY ROASTERY LLC,-76.093157761,43.071335961
OMALE NEW YORK GROCERY CORP,-73.886502978,40.850087447
HONG JIN FISHMARKET INC,-73.962210172,40.635939753
51 DELI & GROCERY NYC INC,-73.910385116,40.655936585
ALBISHARI KHALED,-73.978863086,40.741005945
LEILOUS DONALD E,-78.318337723,42.015418542
NUBE DE JESUS CORP,-73.926416595,40.741888685
HIGH FALLS FOOD COOP INC THE,-74.134821135,41.829660689
HOMEMADE TASTY CREATIONS LLC,-73.875113397,40.681156684
J DELI & GRILL PR CORP,-73.91626544,40.819749022
SUPER PRICE CHOPPER MEATS INC,-78.821646198,42.90975026
236 DEEP MART INC,-74.409553853,41.445895546
FERRERA DELI GROCERY CORP,-73.897418982,40.859042127
BOLLA OPERATING CORP,-73.847520976,40.6705128
DOLLAR TREE STORES INC,-73.794299529,42.600215586
NY FINEST DELI INC,-73.91218228,40.821753974
SPEEDWAY LLC,-73.638731071,40.647135713
UNITED REFINING CO OF PA INC,-78.881755927,42.998419354
GS GALAXY INC,-73.826874706,40.708036484
DOLGEN NEW YORK LLC,-77.699417406,42.560037939
TLAXCALITA LA BELLA DELI & JUICE SPOT IN,-73.825262531,40.701165628
COSTCO WHOLESALE CORP,-74.008809027,40.655635004
CARIB FOOD MARKET INC,-73.949101462,40.680494597
STAP DAIRY INC,-74.253058356,41.616425785
BAGEL PRODUCTS INC,-73.660684029,40.716934796
SYRACUSE UNIVERSITY,-76.132309295,43.035263435
HUTCHINSON SUSAN K,-76.123437721,43.137256695
PIT STOP 819 INC,-73.792772464,40.90153812
148 DELI GROCERY INC,-73.940506446,40.824906483
STOP&SHOP SUPERMARKET CO LLC THE,-73.44645918,40.726062772
WEIS MARKETS INC,-76.810253969,42.09196996
EMILY GROCERY INC,-73.935826539,40.846146737
BIG LOTS STORES LLC,-75.484198833,43.225247694
ELVERTON CONVENIENCE INC,-74.157135773,40.562316468
BONGA-LO LLC,-77.625609216,43.152915599
JAYS FAMILY DELI GROCERY CORP,-73.95969493,40.69245352
TOPS MARKETS LLC,-78.961325057,43.02006529
PAWLING DELI & CONVENIENCE LLC,-73.66733683,42.713928592
BAKED BY MELISSA LLC,-73.976150953,40.751661566
95 NUTRITION LLC,-78.869599522,42.957177136
EL CONUCO DE MAMA CORP,-73.878413352,40.681770826
SPEEDWAY LLC,-74.998599978,42.858997291
HANA GROUP OPS LLC,-73.670721861,40.797143658
CALDERON BROTHERS FRUIT MARKET INC,-73.924462271,40.702152304
FIRE OG CONVENIENCE II INC,-73.950645157,40.666804058
DELAWARE MART INC,-78.867354812,42.940842343
H&O CITY HEART INC,-73.970952479,42.786666967
MOUNTAIN FRUIT OF AVE M,-73.994879394,40.63257006
BOLLA OPERATING LI CORP,-73.112215872,40.81199111
LOPEZ DELI GROCERY CORP,-74.005363311,40.643183478
DEADBREAD INC,-73.996257546,40.658832826
PIGGY PETES PROCESSING LLC,-77.745659276,42.560498818
MACOON INC,-73.965479868,40.760987816
ESTEFANIA DELI GROCERY CORP,-74.007572445,40.644507273
MARKET STREET COFFEE & TEA LLC,-77.051911194,42.143053847
FASTRAC EG LLC,-76.813103397,43.208918489
ASLAM ITZAZ,-77.598360571,43.158795379
DOLGEN NEW YORK LLC,-76.046208163,44.00133646
DOLGEN NEW YORK LLC,-76.499709904,42.208313165
AMIN YASMIN,-78.865615064,42.947974798
OM SAI JALA LLC,-76.813212613,43.219536181
DOLGEN NEW YORK LLC,-74.858686316,43.042260019
ONS RETAIL INC,-72.646915267,40.830002907
DUANE READE INC,-73.985056474,40.757652405
SARNO EMILY R,-74.429968733,41.665419518
4158 MEAT MARKET INC,-73.857756487,40.892324443
NY HARVEST TRADING INC,-73.991059928,40.7108883
EMF GOURMET ITALIAN MARKET LLC,-73.331007085,40.838284164
FINE DELI CORP,-73.932911313,40.795699666
HETAL GROCERIES INC,-74.09603765,40.589188934
JOHN&SONS FLY ROAD MARKET INC,-76.058449976,43.092693972
LEX34 FRUIT&VEGETABLE CORP,-73.979598262,40.746184411
TOPS MARKETS LLC,-78.709915429,43.290743257
729 JACKSON DELI GROCERY INC,-73.906045805,40.817717668
PEAK 7 INC,-73.920642135,41.62624003
EDIBLE ARRANGEMENTS LLC,-73.898698815,40.8208582
MADE IN MEXICO DELI GROCERY CORP,-73.868662517,40.834690812
MARTINS FOODS OF S BURLINGTON LLC,-73.812581382,42.717701747
RITAJ EXPRESS MART LLC,-77.632156656,43.159580931
ARMSTRONG AUTO CENTER INC,-74.162927919,40.560302716
BUBBLES AND BAKES BUFFALO LLC,-78.77279194,43.112241031
EL MERCADO MINI MARKET INC,-73.818328023,41.054343501
D&F KOSHER FISH INC,-74.047359076,41.11619657
NAELAS ORGANICS INC,-73.261414359,40.730178843
REINISH KEVIN,-73.889370679,42.510465855
109-18 LIBERTY AVENUE CORP,-73.83224298,40.684162141
BROOKLYN STYLE CATERING INC,-74.00481966,40.615724153
PROSPECT HEIGHTS FOOD CORP,-73.955576482,40.676905508
MEKO DELI & GROCERY INCORPORATED,-75.250747323,43.094680064
RISAS TRADING CORP,-73.903756623,40.880718818
MARILENAS LLC,-72.442743123,40.888477192
YAN FOOD & GROCERY CORP,-73.86389774,40.887967614
SABORCITO PUEBLA DELI GROCERY CORP,-73.937671815,40.634509339
4TH AVENUE CONVENIENCE INC,-73.989597202,40.66899647
S & S BK INC,-73.994464657,40.596406423
PECKS MKT OF LIVINGSTON MANOR INC,-74.82555039,41.90129323
BELLINGERS ORCHARD LLC,-74.39306271,42.902929025
LR BRASS INC,-78.440328277,42.533112291
MOTION CRAFT BREWED LLC,-73.455921343,40.679758918
DOLGEN NEW YORK LLC,-76.10324119,43.041903201
BATHIJA RAJESH,-73.076468563,40.742176604
AMIN DELI GROCERY CORP,-73.957484455,40.671630651
FIVE POINTS MERCHANTILE LLC,-73.781064671,43.073974751
ANNADALE ROAD CORP,-74.177230044,40.54102459
STEWARTS SHOPS CORP,-74.378239817,42.954494368
"PAK-INDO GROCERY & HALAL MEAT, INC.",-73.843524462,40.953150873
BURKE 99 CENTS AND UP CORP,-73.866388003,40.871589291
BEACON ONE STOP INC,-73.978681366,41.501077554
WALGREEN EASTERN CO INC,-75.276543468,43.055194259
EL SOL DE CHOLULA DELI GRCY CORP,-73.924619683,40.70022082
FOOD FINEST GOURMET DELI INC,-73.91492794,40.87079234
A & V BAKING INC,-73.925477068,40.762162791
CHINESE CHECKERS INC,-73.958828242,40.700767865
COW HARBOR BEER COMPANY LLC,-73.372599191,40.686501363
FAMILY DOLLAR STORES OF NEW YORK LLC,-73.320554529,40.865737298
RDOUBLE J&G LLC,-73.898322971,40.920092809
REGALO DE JUQUILA CORP,-73.931686214,40.697491463
ALDI INC,-78.829610347,42.948566644
MIRABITO HOLDINGS INC,-75.649012614,42.076097695
CVS ALBANY LLC,-73.599514996,41.562161092
H & F GOURMET DELI CORP,-73.858628289,40.817470528
WALGREEN EASTERN CO INC,-75.303419286,43.097858104
STEWARTS SHOPS CORP,-73.586053994,43.285471081
331 EXPRESS DELI GROCERY CORP,-73.987138814,40.667958824
SORIBEL FRUIT&GROCERY INC,-73.809371616,40.694825934
NUEVA MICHOACANA DELI INC,-74.06841316,40.592656904
RAQUETTE LAKE SUPPLY CO INC,-74.657981142,43.812879666
KIRPA OIL INC,-76.122624761,43.07238747
MABKER DISCOUNT STORE LLC,-73.834910371,40.906943017
WALGREEN EASTERN CO INC,-73.927925925,40.62656363
NASEB FOODS INC,-74.034111311,40.616431292
ACME MARKETS INC,-73.771547356,41.11419824
MIRABITO HOLDINGS INC,-75.38949372,42.312849035
TAHER AHMED,-77.624839254,43.178865427
GOHAR ALI,-73.944251441,40.791849229
ZNN DELI GROCERY LLC,-73.906768828,40.829377482
WEJDAN DELI GROCERY INC,-73.936360047,40.84605529
BEST CARE PHARMACY OF NEW YORK INC,-73.977877541,40.611901125
WALGREEN EASTERN CO INC,-74.081753126,40.59902933
DERBY DELI INC,-78.984845792,42.698788695
SUSTAINABLE VITICULTURE SYSTEMS,-76.872792773,42.521873667
2GBD INC,-72.98545987,40.950620454
SQ MARKET INC,-74.002096883,40.642474369
TULCIMEX CORP,-73.88912467,40.828876831
BERRY ORGANIC MARKET CORP,-73.928362454,40.862545344
BIMBO BAKERIES USA INC,-76.792313785,42.058462969
CARIBE MINI MARKET NY CORP,-73.011804206,40.765721669
SOUTHERN BLVD GORMET DELI & SMOKE SHOP C,-73.891980468,40.823039841
JASAA GROUP INC,-73.948931309,40.777798267
HANA GROUP OPS LLC,-73.984428002,40.754532634
SARAR CORPORATION,-73.670781038,41.41491578
NY ONY INC,-74.103628469,43.217598746
JM DELI & GRILL INC,-73.958614671,40.708532776
MONROE HEALTH FOOD CENTER INC,-74.162056369,41.345656072
J CH - DELI GROCERY INC,-73.872646267,40.76049584
SUSHI 2 GO LLC,-73.255034114,40.881725401
BOLLA OPERATING LI CORP,-72.995288322,40.824924512
GARCIA MIRIAM ZAMORA,-73.805949955,40.69476022
WILLERT PARK FOOD MARKET LLC,-78.853659955,42.887943775
DOLLAR TREE STORES INC,-77.940899952,43.197133366
WILLIAM GROCERIES&MEATS FAIR INC,-76.069503024,43.177675993
BUDDY GOURMET DELI CORP,-73.950580868,40.661705095
GAO VILLAGE INC,-74.006708858,40.641882564
FRESH POINT MARKET INC,-73.820195,40.687647169
BK SUSHI FACTORY INC,-73.949948042,40.674866794
JACKS 40 WEST NYC CORP,-73.988538511,40.755079594
DOLGEN NEW YORK LLC,-76.298983188,42.502352843
GHEELICIOUS LLC,-73.674917172,40.656298767
SARB CONVENIENCE INC,-73.625111149,40.708925133
SALEH MOHAMED AHMED,-78.854804169,42.885391569
ARTHUR'S MARKET LLC,-73.945908711,42.818147625
GRIFFIN ENTERPRISES INC,-73.82049197,42.36222494
SPEEDWAY LLC,-73.533010629,40.865524984
NEW PRICE RITE DELI CORP,-73.735127986,40.712945932
GRAND CHILD DELI FOOD INC,-73.754212909,40.602231235
HUA XING GROCERY INC,-74.003435557,40.634289314
CARLOS CARNICERIA DELI CORP,-73.859751464,40.750236726
SHOREHAM MAH CORP,-72.894694923,40.946996622
AMARANTE JOSE R,-73.896252473,40.920547611
SAMMYS KOSHER MT N WESTCHSTR INC,-73.713205538,41.225003689
RICHMOND HILL DELI CORP,-73.827152566,40.700803488
STAR BLOCK INC,-73.836343742,40.889123436
FRANKLIN EXPRESS MULTISERVICE & CONVENIE,-73.646436219,40.803846205
STAR BRITE FLATBUSH INC,-73.946225631,40.631234907
DOLGEN NEW YORK LLC,-78.97236363,42.162454809
UNITED REFINING CO OF PA INC,-78.131944229,42.756913212
GAGAN INC,-75.901441758,43.972267129
BANGLA BAZAR GROCERY AND HALAL MEAT INC,-73.893671936,40.750967879
JOES KWIK MARTS LLC,-77.475145924,43.204603904
CONSTANTINE & CO INC,-73.899368697,40.702815773
NEW BEST GOURMET DELI CORP,-73.885695633,40.858910196
DOG WOOD FARM LLC,-73.561311203,42.392287181
RECIPES 4 LEARNING INC,-72.949941891,40.790524427
ALQADIR DELI & GROCERY INC,-73.956495558,40.666264389
TAZS LONG ISLAND LLC,-73.508640748,40.693052826
MATTITAUCK MARKET INC,-72.537802035,40.985969329
DOMINGUEZ ELIER FERIA,-76.98072587,42.867764972
PLACITA 88 CORP,-73.878340765,40.748094521
FRIENDSHIP DELI & TOBACCO LLC,-73.864356649,40.880391673
RED SEA FOOD MART INC THE,-78.81410215,42.94073078
MONARCAS DELI & GROCERY CORPORATION,-74.021481794,40.641473402
1910 DELI GROCERY CORP,-73.940406327,40.800072085
KATBOOCHA LLC,-77.586786755,43.163581697
HEALTHSOURCE PHARMACY III B INC,-73.963764596,40.756848161
111 FULTON ST RETAIL CORP,-74.006459664,40.709681893
MG GAS AND FOOD MART INC,-75.890203135,42.166060243
LILIS DELI GROCERY CORP,-73.895984587,40.822836874
SUPERDURO INC,-73.932586431,40.850595683
APPLE FOOD & CONVENIENCE CORP,-75.905057544,42.106375854
CHURCH OIL CO INC,-73.556631922,44.780656511
STEWARTS SHOPS CORP,-73.875207107,42.76908667
KAUFOLD COUNTRY SHEDS AND GAZEBOS CORP,-72.8651721,40.900155404
SAHARA DELI MARKET CORP,-73.95852884,40.647581253
66 MINI MARKET CORP,-73.920883198,40.705215386
COSTANZA SAUSAGE INC,-77.386836623,43.22163283
SMITHTOWN UNCLE GIUSEPPES INC,-73.185768162,40.852737762
STEWARTS SHOPS CORP,-73.526172337,44.695370898
SS MILL FOOD MART INC,-74.370463339,41.472284417
MIN FAMILY CORP,-74.147552659,41.844124585
WAL-MART STORES EAST LP,-78.693271651,42.50097138
SD INTERNATIONAL PRODUCTS FI INC,-73.997361527,40.605273554
RODRIGO IVONNE,-73.852398272,40.667466522
DUANE READE ET AL PTRS,-73.730281151,40.761059481
30TH AVE DELI INC,-73.916549503,40.764468611
BHAKTI 50 INC,-73.702983555,40.659704293
DOLLAR TREE STORES INC,-75.553975804,42.842150896
TOP RAK LTD,-73.738148657,40.953033269
WESTSIDE SUPERMARKET OF HUNTG LTD,-73.425809356,40.878334041
SUSHILOVER INC,-74.39667925,41.453492484
LIN JIN FENG,-73.997692528,40.611907789
SUSANAS MEXICAN PRODUCTS INC,-73.878287456,40.748606907
RACEWAY MANAGEMENT NY INC,-76.323786246,42.063591057
SONBYRNE SALES INC,-76.240550008,43.050676539
JASMINE FLUELLEN LLC,-73.908654756,40.81130371
CVS ALBANY LLC,-73.473200134,40.776340361
D STOP 18TH DELI CORP,-74.001931927,40.607658164
CST NEW YORK LLC,-76.846223082,42.96096578
BAKIR INC,-73.948578767,40.692963098
PAPIS CONVENIENT INC,-77.607644115,43.178261804
ECONOMY MARKET INC,-77.644313098,43.168888741
TETTAS MARKET AND PIZZERIA LLC,-74.287216121,41.892564945
VICTORY MEAT CENTER INC,-73.993530159,40.60247052
ARISING SUN LLC,-73.804990646,40.709333332
DOLGEN NEW YORK LLC,-75.695746837,44.444620355
M P CLEARY INC,-76.81978193,42.055741238
595 PROSPECT MARKET LLC,-73.990133309,40.664362326
BOUTIQUE BUTCHER LTD,-73.972533324,40.597184557
SPEEDWAY LLC,-75.526076665,42.551853681
ONE STOP SHOP 2021 LLC,-74.579434998,42.905927651
ROLLS ROLLS INC,-73.310986754,40.696783359
SK SWEETS DISTRIBUTOR INC,-73.807162565,40.674726297
BETHEL YOUNG FRUIT&VEGETABLE CORP,-73.857726564,40.892378213
LANTIGUA DELI CORP,-73.931528551,40.769088045
ELI ZABAR FARM TO TABLE LLC,-73.971766026,40.749568406
VENTURA-ALCANTARA LEIDY,-73.897455527,40.845659455
MARTINS COUNTRY STORE LLC,-75.132527787,44.747761648
SMITH DEBORAH L,-76.585253177,42.935770956
SPEEDY MART LLC,-77.622019079,43.186659675
ROYAL CROWN BAKERY INC,-73.998476488,40.625671335
AAA MASTIC GAS INC,-72.840371473,40.802436537
BOGOPA CAMBRIA HEIGHTS INC,-73.742009277,40.695599793
ULLIS OIL MILL LLC,-73.926043349,40.75318439
ALPER GROCERY INC,-74.095330301,40.643051253
YU HUA TRADING INC,-73.830491246,40.760666496
BLASDELL FOODS INC,-78.819056693,42.796908385
TESOLIFE BK INC,-73.994387879,40.602503252
PHELPS STACY E,-79.597413608,42.159384974
E L PUTNAM GROCERY CORP,-73.919002467,40.687501449
NATURES APOTHECARY INC,-73.957713868,40.610065237
SPEEDWAY LLC,-73.586376446,40.656347131
SWEET PISTACHIO LLC,-73.959150777,40.694034095
ARASURT MAA INC,-73.964487954,41.196493693
POLAM INTERNATIONAL MEAT MARKETS INC,-73.951621816,40.731674834
ALDI INC,-76.231859408,42.096557734
CVS ALBANY LLC,-73.082513005,40.83255393
7-ELEVEN INC,-74.991648195,44.744652717
KHAAMAR BAARI SUPERMARKET LLC,-73.778224296,40.714162062
WAYNE B SMITH INC,-75.610945949,42.850239376
PUMPKINVILLE LLC,-78.572543831,42.250189321
NORTH END QUALITY MEATS INC,-73.802769023,40.976694376
WESTERN BEEF RETAIL INC,-73.888781263,40.835279348
ALMONTE HEIGHTS FOOD CORP,-74.008381718,40.61120438
PARADISE 786 GROCERY INCORPORATED,-73.997643159,40.59893935
JJR METZ FOOD CORP,-73.771011417,41.025780142
FOUR CORNERS FOOD COOPERATIVE INC,-75.379400987,42.930931539
FALLSBURG FOOD CORP,-74.617908073,41.715626022
WNY BROTHERS ENTERPRISES INC,-78.820739276,42.935445403
WAL-MART STORES EAST LP,-74.14799581,41.317058025
FELOMAR GROCERY STORE INC,-73.908037932,40.846737787
181 GERMAN DELI INC,-73.938833379,40.851206682
FIREROAD FOODS CO,-73.9465827,40.739965458
BRENTWOOD MANAGEMENT CORP,-73.262320832,40.781904215
EATING EVOLVED LLC,-73.262162168,40.820948389
MIRANDA DELI FOOD CORP,-73.933453538,40.627709437
"KPH HEALTHCARE SERVICES, INC.",-73.515919425,44.694769832
VECERRO FOOD CORP,-73.932130958,40.651539481
GB LICENSE LLC,-73.992829516,40.74135216
FORDHAM DELI #2 CORP,-73.890380279,40.862662523
CAR CARE OF MANHASSET INC,-73.704472181,40.790114678
ACORN FARMS COUNTRY STORE LLC,-73.742666167,40.974784266
AL ZOKARI MOUSA,-76.127742332,43.052500986
SPEEDWAY LLC,-73.803592377,42.721150565
BUY BETTER FOODS INC,-73.939654973,40.69186599
LUCKY 3 DELI CORP,-73.948308366,40.592834265
MILLER MALINDA S,-79.041324085,42.263980125
7 ELEVEN INC,-73.957626528,41.097577848
SPEEDWAY LLC,-73.011941739,40.883612964
IBERIE DELI GROCERY CORP,-73.902789938,40.822793958
MEJIA MINI MARKET CORP,-73.896953787,40.816568802
FEEL RITE NATURAL FOOD SHOPPES INC,-78.821857673,42.993411167
FISHKILL VALERO INC,-73.912929201,41.528197994
BOLLA OPERATING CORP,-73.959953041,40.583068574
RO SUPERMARKET CORP,-73.918370723,40.818829653
82ND STREET GROCERY INC,-73.977145047,40.785075394
FAMILY DOLLAR STORES OF NEW YORK LLC,-76.143231586,43.020397752
KOBACKERS MARKET INC,-73.617793244,41.402551174
JUAN FISH MARKET CORP,-73.948423869,40.650746469
DOLLAR TREE STORES INC,-74.071854434,40.61570257
JOES KWIK MARTS LLC,-78.621959006,42.922887678
LUCKY MOON CONVENIENCE INC,-77.64432785,43.159444306
MARCOS GROCERY & DELI INC,-73.94629101,40.838202536
PRICE CHOPPER OPERATING CO INC,-74.383009958,41.450362262
MADISON CAFE & GRILL CORPORATION,-73.981389894,40.750159696
EASTSIDE GAS INC,-73.937666032,40.807424523
OLLEY SHAUN,-75.499659588,44.069584084
BOLLA OPERATING CORP,-73.9487169,40.664293091
CVS ALBANY LLC,-73.931310034,41.728531686
LANDSCAPE DELI MARKET CORP,-73.896147259,40.911705789
NEW HARLEM HALAL MEAT INC,-73.955350422,40.804143343
ELIJA FARM THE,-73.371692017,40.825595861
STOP & SHOP SUPERMARKET CO LLC THE,-73.77787016,40.779912686
DOLGEN NEW YORK LLC,-79.491153983,42.234205828
PETERS CORNUCOPIA INC,-75.295742694,43.078271158
YAFA NEWSSTAND&DELI INC,-74.009408669,40.649243258
WALGREEN EASTERN CO INC,-75.014196939,42.460603212
LOPEZ AURORA,-77.59903699,43.175649835
BOMBOM DELI GROCERY CORP,-73.920491428,40.739560193
F P GOURMET DELI INC,-73.941246278,40.791962259
W FRESH LLC,-73.955712772,40.699772975
BURKHOLDER KURVIN & ANNAMAE,-77.189140132,42.781472315
COBBLESTONE TRADING CO LLC,-75.58175804,42.889816376
MARJI & AL-TWAL INC,-76.237103369,43.086120842
SUGAR OAK FARMS LLC,-73.802861978,43.0078311
838 180TH DELI GROCERY CORP,-73.884086811,40.845655851
2400 DELI & GROCERY CORPORATION,-73.941496658,40.818591053
NATURAL FOODS TRADING INC,-73.835689451,40.783056529
LATINO GROCERY & CANDY INC,-73.925582345,40.86113425
WILLIAMSBURG DELI GROCERY CORP,-73.957483365,40.711483625
2 KINGS DELI GROCERY CORP,-73.922122403,40.777038309
MNL DEVELOPMENT LLC,-73.963494907,40.577579116
BX METRO SUPERETTE CORP,-73.897789882,40.882531153
CVS ALBANY LLC,-73.988710145,42.293912304
WALGREEN EASTERN CO INC,-74.694034557,41.375295111
NEPPERHAN GROCERY & DELI INC,-73.886859964,40.939342687
DOLLAR TREE STORES INC,-73.868297652,40.904603848
BJS WHOLESALE CLUB INC,-75.973340718,42.127866299
ALHELAL CORP,-73.999526405,40.683549885
HEIGHT STAR SERVICE STATION CORP,-73.897440608,40.843360131
CBRW LLC,-75.872123621,42.168617478
DHABA PUNJABI & GROCERIES INC,-73.830532066,40.68880823
VALUE GRILL INC,-74.166186887,40.632529911
MOTT HAVEN GROCERY CORP,-73.925733135,40.811712118
EASTMAIN CONVENIENCE STORE CORP,-77.560335145,43.159724806
L&O GROCERY CORP,-73.94862143,40.795083722
CVS ALBANY LLC,-73.93137491,41.658772543
WILLIAMS NEVILLE,-73.818321896,40.688372497
ALTERIS ITALIAN-AMERICAN MARKET LLC,-75.914968893,43.991544961
T&A GOURMET DELI CORP,-73.93839224,40.712638484
CVS ALBANY LLC,-73.76311382,41.025164533
STEWARTS SHOPS CORP,-75.250554874,42.879649421
DOLGEN NEW YORK LLC,-77.288998236,42.519055285
TOPS MARKETS LLC,-78.753985967,42.919421887
EAST COAST ACAI LLC,-72.943623025,40.815258124
STOP&SHOP SUPERMARKET CO LLC THE,-73.08591209,40.73420186
PALM GRILL CORP,-74.072543175,40.613966594
LA FLOR DE MORELOS CORP,-73.970725683,40.646639797
PARK SIDE MINI MART INC,-78.892392814,42.98104895
A SCICCHITANO ITAL PK ST AVEX INC,-73.969677609,40.590739418
CRR ENTERPRISES LTD,-73.860352072,41.148908952
SOSH BRANDS INC,-73.354040567,40.890452136
HOME THREAD INC,-73.935181132,40.850855858
SEA & SEA LBF LLC,-73.952212741,40.810986078
CHOPCHEESE DELI 5 CORP,-73.993350032,40.716737612
EL MUNDO UNIDOS DELI GROCERY BAKERY CORP,-73.963054816,40.6500185
INTERNATIONAL MINI MARKET NYC CORP,-73.810833503,40.702265962
CVS ALBANY LLC,-72.791711,40.801136
BOLLA OPERATING CORP,-73.985838757,40.578607284
NY GRILL & DELI INC,-73.941091045,40.805394007
VARCO PAUL,-74.456446159,42.83124481
309 CENTRAL LLC,-73.772026633,42.664935655
LA BODEGUITA DE ROSA CORP,-73.909195053,40.844737529
RSJ GROUP CORP,-73.954894447,40.670704367
CHESTNUT MART INC,-73.808493779,40.928155822
DOLLAR TREE STORES INC,-73.956764701,40.650374899
ROBB RANDALL S,-77.873911614,43.197058515
PEMM LLC,-77.331081628,42.338144738
DOLGENCORP OF NEWYORK INC,-73.878575961,40.702017984
UNITED REFINING CO OF PA INC,-77.877187818,42.724973333
KING MEAT CORP,-73.943095661,40.836963775
LOS MUCHACHOS DELI GROCERY CORP,-73.871171723,40.68732874
ROHAN (NY) INC,-73.417119502,40.680982801
DOLGEN NEW YORK LLC,-79.73825383,42.122736281
MOUNTAIN MART 105 LLC,-74.888809787,44.920304215
A&M GOURMET MINI MARKET CORP,-73.951913926,40.733193215
SONBYRNE SALES INC,-75.663883703,43.078268968
DELI R US CORP,-73.887066315,40.654188439
F.A.C.A. RESTAURANT OWNERS CORP,-73.759784779,40.679239617
FAMILY DOLLAR STORES OF NEW YORK LLC,-73.931084393,42.803872029
F & F DELI GROCERY CORP,-74.039818716,41.105459435
KOSHER GARDEN INC THE,-73.964203891,40.620725635
CVS ALBANY LLC,-73.755079347,40.597145371
FOOD PORT ENTERPRISES INC,-78.829570686,42.894735377
SOUTHAMPTON CONVENIENCE STORE INC,-72.397564916,40.896173832
BRIGHTON FINEST GOURMET DELI CORP,-73.964388461,40.577161489
ITHACA BEER CO INC,-76.535102491,42.416539799
SEAVIEW DELI AT 2124 CORP,-73.887672924,40.631474881
COMMERCE COMMERCIAL GROUP INC,-73.782915312,41.276403196
EAST DELAVAN EXPRESS DELI & GROCERY,-78.833490917,42.921599421
1506 ROCK DELI CORP,-73.900908033,40.643713172
ALIANS DELI CORP,-73.919794138,40.807053121
ALDI INC,-73.694461255,42.65698848
"HORNING, TIM & VERA",-76.594273698,43.167363151
DELI R US FOOD MARKET INC,-73.861489032,40.837281114
WING FAT COMPANY INC,-74.008322877,40.636893739
056 DELI & GROCERY CORP,-73.903125633,40.853528805
PARM RX EXPRESS INC,-73.957066617,40.594640984
JEY-SIX MINIMARKET LLC,-73.745831174,40.715765269
DOLLAR TREE STORES INC,-73.824077916,42.773307796
NOVAX DELI CORPORATION,-73.898754219,40.818870725
BRAVO USA LLC,-73.913798646,40.716315038
UNITED REFINING CO OF PA INC,-78.741932623,42.978422941
CVS ALBANY LLC,-73.792098548,40.900707099
S&Y GRACE CORP,-73.832507177,40.883872132
CASTLETON CORNER DELI & GROCERY 2 CORP,-74.125823078,40.633970928
3 BROTHERS 1 CORP,-73.411297935,40.850413922
PAUL SANDRA,-73.768369441,42.662748565
GENOVESE DRUG STORES INC,-73.254599345,40.883366703
J & K SMOKE SHOP CORP,-73.885082162,40.873863972
STEWARTS SHOPS CORP,-73.807191566,42.263321039
EAST COAST PRIVILEGE BAKERY INC,-73.960565873,40.585656706
FRUIT JAM LLC,-74.036080145,41.501833279
MIDDLE EASTERN GROCERY CORP,-73.912200552,40.767735709
GALIL IMPORTING CORP,-73.2246011,40.806294727
DIAZ GARDEN CORP,-73.927559803,40.860739714
R & R FOODS CORP,-73.967229339,40.693432736
RITE AID OF NEW YORK INC,-79.001948563,43.126389432
WAL-MART STORES EAST LP,-73.543593201,40.726954942
POLO FOOD CENTER INC,-73.755770015,40.60555724
DOLLAR TREE STORES INC,-75.437753869,43.235487572
ALBERMARLE FOOD CORP,-73.979699013,40.645263656
OLINVILLE DELI PLAZA CORP,-73.868459507,40.858645747
165 TROPICO MINI MARKET CORP,-72.784261736,40.800601473
SIMPELAAR FRUIT FARMS LLC,-76.234018074,43.481878561
WESTERN BEEF RETAIL INC,-73.651052804,40.688589672
CARLE KEVIN,-74.40819671,44.841551608
SPEEDWAY LLC,-75.979037059,42.095630757
ROCK HILL BAKEHOUSE LTD INC,-73.636119856,43.312965861
COLORADO DELI FOOD CORP,-73.921044131,40.833906937
YEMEN MARKET INC,-73.772209777,42.666077019
JFE FRANCHISING INC,-73.991056073,41.968136477
ADNAN NAJAN,-75.451422648,43.216276913
SYRACUSE MARKET INC,-76.137901533,43.047427085
WATANY MEAT AND FRUITS INC,-73.913329846,40.766180698
BEACH 663 MANAGEMENT CORP,-73.644247369,40.589063331
MILLENNIUM CONVENIENCE & GROCERY INC,-73.945050656,40.779094948
EL CHAI CORP,-73.849534427,40.733300923
E 187TH DELI GROCERY INC,-73.885762353,40.854532537
SIDS COUNTRY LLC,-72.785975017,40.926817609
HALAL FOOD DELI CORP,-73.932673938,40.684433128
CONSUMERS BEVERAGES INC,-78.982882048,43.088282331
DAVIDS DELI GROCERY CORP,-73.933438786,40.798399519
ALL NATURAL PRODUCTS INC,-73.883163125,40.815955331
ALI TOWFFEEK G,-78.825408834,42.851590287
IMAGINARIO LLC,-73.803885492,40.974708032
WALGREEN EASTERN CO INC,-79.048499055,42.639158495
DOLLAR TREE STORES INC,-73.622472274,40.861814232
60-90 ELIOT AVE INC,-73.901954346,40.713949497
STEARNS JUDSON E JR,-77.776076532,42.266776898
HAMILTON CORNER MEAT MARKET INC,-73.95423345,40.820771153
3226 EXPRESS DELI CORP,-73.879505179,40.876502176
ABENDROTHS APPLE RIDGE ORCHARD LLC,-76.783730945,43.189319546
CLOUD DELI CONVENIENCE CORP,-73.941393464,40.834336426
MEI KANG INC,-73.819294364,40.750557417
UDDIN SHEIKH,-73.91322172,40.746145519
SCHUYLER FALLS MINI MART LLC,-73.559170046,44.631402769
1531 METRO DELI INC,-73.858589564,40.839617821
7-ELEVEN INC,-78.696953989,42.965273998
SOUTHERN BLVD FARM CORP,-73.888092355,40.836437224
DELI BITE CORP,-73.990432962,40.686584679
FARMINGDALE MEAT MARKET INC,-73.446223649,40.73405454
P & S DELI GROCERY CORP,-73.86361133,40.746758026
SONBYRNE SALES INC,-77.898590368,43.198543453
FERMENTO LLC,-77.380353975,42.70746472
CVS ALBANY LLC,-74.175863794,41.319214772
MIKE FAMILY DELI GROCERY CORP,-73.918728462,40.818630541
OB FISH MARKET INC,-73.902064149,40.64508311
JUICE & BEATZ INC,-73.907943932,40.753296439
GREEN DOOR BK CORP,-73.960377972,40.659337081
SMALL WORLD FOOD LLC,-77.620947285,43.13844877
SOS KOSHER FISH MARKET INC THE,-73.95886529,40.618026369
GUZZELS STORE INC,-74.026489981,41.102083456
COURT SQUARE DELI INC,-73.945602185,40.746515077
OVIEDO RAMONA,-73.749621135,40.704233069
FIRE HOUSE DELI & GRILL 2 CORP,-73.905271401,40.688940664
UNITED REFINING CO OF PA INC,-76.342750553,43.16229256
DANDY MINI MART INC,-76.841599437,42.421263546
SKB DELI INC,-74.003196002,40.7333057
JM BRAUNIUS CONST INC,-74.426314282,43.854989778
LC GROCERY STORE CORP,-73.902061299,40.854872046
B & B FORTIN FAMILY ENT LLC,-73.796986264,44.906030253
LUCEROS GROCERY STORE INC,-73.804421599,40.756232636
STEPHENSON ANDREW,-75.939786954,42.11338522
COOK&WOLF CORP THE,-72.133335393,41.003092132
HANINI GOURMET DELI CORP,-73.921632205,40.835718266
LOCH GORMAN INC,-72.12697948,40.979218963
VIRGINIA FOOD INC,-78.883089655,42.894524198
MARION DELI GROCERY CORP,-73.911359428,40.681618736
"KPH HEALTHCARE SERVICES, INC.",-75.549899375,42.832528876
DUANE READE ET AL PRTS,-73.922093797,40.760295093
NORTH STAR MART INC,-73.000542518,40.813542516
2400 C&F FOOD CORP,-73.897718132,40.859922269
KATY DELI GROCERY CORP,-73.896311062,40.84814997
NUTS FACTORY TRADE LLC,-73.999672418,40.628704578
LAGUSTAS LUSCIOUS LLC,-74.087151323,41.749774363
ECKERD CORP,-78.740360345,42.977222946
M&S SARAH CORP,-74.194222509,40.589141366
ZK 10504 CORPORATION,-73.889436956,40.651280783
PORTLAND & NORTON INC,-77.5845021,43.187641782
SALEM FISH MARKET INC,-73.944493008,40.600024597
BUFF CITY 716 INC,-78.825369546,42.948131523
1966 K FOOD LLC,-73.918712369,40.629732954
RICHMOND HILLS BAGELS CORP,-74.165748178,40.588184446
ZZ PETROLEUM INC,-74.323434408,43.051626795
STEWARTS SHOPS CORP,-74.444343026,41.445262042
FASTRAC EG LLC,-76.508836707,42.440626664
PHAM TUYEN KIM,-78.887925846,42.906072993
RSJ GROUP CORP,-73.959887463,40.773852235
NAPLES APOTHECARY INC,-77.403432791,42.614433934
MAPLE AVENUE MINIMARKET CORP,-73.011333548,40.770424288
QUICKY MART INC,-73.767425052,42.639172241
3960 GRAB AND GO CORP,-73.860505248,40.887362943
ALDI INC,-77.056537921,42.659047159
WYCKOFF ORGANIC MINI MARKET INC,-73.912360814,40.700386823
RA 22 PARK PLACE ENTERPRISES INC,-73.987553527,40.772145638
FAMILY DOLLAR STORES OF NEW YORK LLC,-76.418164464,43.31411062
METRO 50 INC,-73.747389453,42.635578626
JAZMINS SPANISH AMERICAN FOOD INC,-74.008901144,40.60538868
SAM WHA MEAT CORP,-73.822286704,40.75720544
B&S GROCERY CORP,-73.956928735,40.618487164
EBENEZER DELI&GROCERY CORP,-74.000210787,40.623431774
ORANGE TREE ORGANIC MARKET CORP,-73.94314327,40.705998005
GREEN GODDESS FOODS LLC,-74.00070029,44.296256017
K&BP NY CORP,-73.688626109,40.722217365
CVS ALBANY LLC,-73.726931156,40.620329883
ASTORIA BLVD DELI GROCERY INC,-73.911824959,40.768897985
HEALTHYHOLIC II INC,-73.855970111,40.963685345
STEWARTS SHOPS CORP,-73.815440348,44.262365729
RCP MEATS INC,-72.999774065,40.818685191
185 GARDEN DELI & GRILL LLC,-73.924026999,40.704354104
DEYVI GROCERY DELI CORP,-73.883114929,40.671285233
UNCLE GIUSEPPES YORKTOWN HTS INC,-73.781511476,41.273510356
PRINCE CONVENIENCE GROCERY CORP,-73.894274763,40.639503696
CALABRESELLA ON PARK INC,-77.590205231,43.150712165
JIM&JUNE INC,-78.886589938,43.051036165
JANUS NEW YORK INC,-73.905070989,40.699340175
EL MANDO DELI INC,-73.926709794,40.820629038
A&P LOTTERY STORE INC,-73.892576589,40.748764947
TAWFIQ DELI & GROCERY INC,-74.009002649,40.618601367
LANSING ALBERT,-73.85458511,42.763298085
LAKEVIEW MART INC,-77.629864708,43.193409789
TWO WITCHES LLC,-73.990814003,40.714447215
MUKTI 239 PETROLEUM INC,-73.448420462,40.728269099
TRU NORTH PIZZA LLC,-75.357737958,44.665434344
VEDA FOODS INC,-73.979895904,40.726698875
LATE NIGHT 905 INC,-73.93888476,40.71470676
2185 ANTILLANA MEAT & FOOD CORP,-73.86785031,40.856261179
RAJESHWARI LLC,-76.485001927,42.442219394
RIVERHEAD FOOD SHOP INC,-72.67984715,40.917330915
WALGREEN EASTERN CO INC,-73.689161965,42.904448287
CATSKILL HEALTH FOOD STORE LLC,-73.881031188,42.214104138
S&O STAR DELI CORP,-73.982315927,40.613252665
SPEEDWAY LLC,-74.441813535,42.681287323
GREENWOOD LAKE ROASTERS LLC,-74.288564387,41.227743051
TRIANGLE DELI CORP,-73.923205572,40.690009105
DYLANS CANDY BAR LLC,-73.99970925,40.753900121
WALGREEN EASTERN CO INC,-73.751335655,40.707708557
SABOOR PETROLEUM INC,-76.484855915,42.483396289
SONBYRNE SALES INC,-76.186496204,43.105093363
HAMBURG MARKET LLC,-78.83949303,42.71974031
FRESH FISH MARKET INC,-73.905062943,40.849229684
UNITED REFINING CO OF PA INC,-77.65974217,42.353560567
PRECYCLE LLC,-73.920624617,40.707765287
110 SUTPHIN DELI GROCERY CORP,-73.796709913,40.689716828
286 WATCHOGUE ROAD CORP,-74.138796085,40.61608667
GREAT WAY FOODS INC,-73.933990399,40.85402451
DALAYLA CRICKET FARMS LLC,-78.665588907,42.509519873
ROKEYA INC,-73.462042815,40.700783581
AMAZING FOOD MART INC,-73.908154692,40.65899116
ROBIN GROCERY & NEWS INC,-73.906015,40.745539
BIGS SMOKE SHOP CORP,-73.887208735,40.664673294
TOPS MARKETS LLC,-79.001150857,43.125767914
DOLLAR TREE STORES INC,-78.694387618,42.868590421
RIDGE SPOT LLC THE,-74.027216273,40.632193084
WALGREEN EASTERN CO INC,-78.968920093,43.090843248
CVS ALBANY LLC,-74.006126651,41.200477612
MARTINS FOODS OF S BURLINGTON LLC,-73.891141607,42.783361344
89 DELI & GROCERY INC,-73.797029515,40.707587255
WALGREEN EASTERN CO INC,-76.1143048,43.068686986
NFM 61ST STREET LLC,-73.965803578,40.762999347
612 SUPERMARKET CORP,-73.949910567,40.677555902
7 DAYS ONE STOP MINI MART INCORPORATED,-76.146426348,43.059346738
FOOD LAND DELI & GROCERY INC,-73.67832242,42.763830644
A AND M DELI GROCERY CORP I,-73.790041103,40.67317925
ORLANOU GROUP INC,-73.909283147,40.651907865
STEWARTS SHOPS CORP,-73.989457057,41.925330978
BRONX GOURMET LTD,-73.889000031,40.844229376
GRACEFULLY INC,-73.980249369,40.734039285
ALEX CANDY STORE CORP,-73.924682128,40.841954234
DOLGEN NEW YORK LLC,-77.606614147,42.274955205
KING JOHN,-74.617719257,42.846536209
STEWARTS SHOPS CORP,-75.510035295,42.539700341
CVS ALBANY LLC,-78.752860361,42.80047082
WING LONG TRADING INC,-73.996841094,40.718503092
565 LENOX DELI CORP,-73.939612812,40.654907036
3 SISTERS GARLIC LLC,-78.825074145,43.212033833
KIMBALL AVE DELI CORP,-73.853892262,40.920969597
HUA-TE NY INC,-73.828313124,40.754958503
PATS MEAT FARM INC,-73.323404802,40.876984677
LWIN FAMILY CO LLC,-73.427023391,40.873396891
GOLDEN JAR RETAIL INC,-73.247327289,40.798730478
CVS ALBANY LLC,-73.681053825,41.002030605
Y&M GLATT MINIMART INC,-73.835199528,40.707347826
CVS ALBANY LLC,-73.867525008,40.853853226
GONZALEZ ALBERTO,-73.893174973,40.865780339
DIAMOND GROCERY SUPERMARKET CORP,-76.144538576,43.07955295
HARI MAHANT CORP,-73.330912633,40.887848256
DOLGEN NEW YORK LLC,-78.794816757,42.875484453
BRADFORD T REEVE SR&PAUL REEVE INC,-72.611668395,40.947303526
DOLGEN NEW YORK LLC,-75.192477254,42.386665103
TOPS PT LLC,-76.834282439,42.903034215
MARTINS FOODS OF S BURLINGTON LLC,-74.056357636,41.452707477
CENTRAL PARK FOOD CORP,-73.858653602,40.92647437
514 TERRACE FOOD CORP,-74.089468501,40.646280088
DOLGEN NEW YORK LLC,-74.876750575,44.926998087
895A BROTHER FOOD CENTER CORP,-73.958711817,40.668189419
GRO MEXICAN CORP,-74.001504366,40.656836173
WALGREENS EASTERN CO INC,-73.941551463,40.700667198
COSTCO WHOLESALE CORP,-73.86249906,40.97294384
GR 109 GROCERY CORP,-73.866151969,40.757738236
MARTINS FOODS OF S BURLINGTON LLC,-74.321709496,43.060509853
ROJAS LOPEZ KENIA,-73.556852449,41.849386283
WALGREEN EASTERN CO INC,-73.341503336,40.714635095
DUANE READE ETAL PTRS,-73.978789241,40.760140992
GREEN POINT ORGANIC MARKET INC,-73.950612971,40.723720743
ARLINGTON GETTY MART INC,-73.898670149,41.696270789
LI LI GROCERY INC,-73.884191249,40.733260732
LA GRAN LUPITA DELI & GROCERY CORP,-74.00386932,40.651112967
FRANKS GOURMET MARKET INC,-73.937281973,40.855345875
MIDDLEBURGH VALLEY MARKET I NC,-74.337534445,42.609169848
PRICE CHOPPER OPERATING CO INC,-73.690597114,42.656834672
GALLERIA GOURMET MARKETPLACE INC,-74.004753527,40.747200968
GREEN APPLE GOURMET AND GROCERY CORP,-73.825246689,40.829906003
ANTONIOS LAND & SEA GOURMET MARKET INC,-73.017844946,40.935639018
7-ELEVEN INC,-73.783073981,42.685076991
R&A MEAT MARKET LLC,-73.820582244,40.824673558
LITTLETREE ORCHARDS LLC,-76.566746941,42.350911215
KING SEAFOOD MARKET NY INC,-73.850712587,40.834472296
SAZ CORP,-73.420428369,40.858956794
KING FERRY CORNER STORE LLC,-76.61640955,42.664883687
ACCORD MARKET LLC,-74.230492094,41.786621964
ICHIBAN NY SUSHI LLC,-73.957699458,40.745683557
DOLGEN NEW YORK LLC,-78.820111723,42.796617114
APPELS SUPERETTE INC,-73.987637932,40.635696175
CVS ALBANY LLC,-75.378276638,42.931712397
132 EXPRESS DELI INC,-73.942818304,40.706029311
"KPH HEALTHCARE SERVICES, INC.",-74.46373984,44.234074365
LA AZTLAN GROCERY BAKERY & DELI I,-73.964334984,41.196928211
1548 HUNTINGTON DELI INC,-73.411571939,40.844788072
DOLGEN NEW YORK LLC,-78.275736029,43.069783465
LWIN FAMILY CO LLC,-73.806105859,40.971512935
BAGEL DEPOT OF S.I. CORP,-74.136195264,40.573117514
GOLD CITY SUPERMARKET INC,-73.818001958,40.750173149
RAPHAEL DELI CORP,-73.904632783,40.764803384
7-ELEVEN INC,-75.273095823,43.052760322
STOP&SHOP SUPERMARKET CO LLC THE,-73.406133509,40.668007825
RANCH GROCERY LLC,-77.111852196,42.36355716
WAN JIA MINI MART INC,-74.003129366,40.634519649
UTICA FOODLAND INC,-75.246469954,43.103691029
C&C DELI AND MINI MART INC,-73.879524541,40.828714054
BEBE MINI MARKET INC,-73.845219591,40.783137917
1 WAY JUICE BAR DELI CORP,-73.834320602,40.698419256
ALMASRY GROCERY STORE INC,-73.057942462,40.861498276
LAS AGUILAS DELI FOOD CORP,-73.847848994,40.831075111
SPEEDWAY LLC,-78.672647056,42.916202942
RED TOP INTERNATIONAL INC,-73.814941055,40.739704068
FOREVER DEAL INC,-73.900448873,40.831435742
CHESTNUT MARTS INC,-73.687277545,40.982866306
SANDERS MEAT MARKET LLC,-73.844616345,43.015880703
DOLLAR TREE STORES INC,-73.94345097,41.121036406
CENTRAL PHARMACY OF BROOKLYN NY,-73.965403342,40.576604051
7 DAYS DELI MART INC,-76.821207608,42.112442088
MY HB DELI INC,-73.831312337,40.658859271
BEAN AND BARNS LLC,-73.618241173,42.326885915
DANDY MINI MARTS INC,-76.976570541,42.525959174
FAMILY DOLLAR STORES OF NEW YORK LLC,-73.811046068,40.587248062
8425 GOURMET DELI CORP,-74.020681658,40.619283906
NETOS GROUP MARKET LLC,-73.934620551,40.848410898
DOLGEN NEW YORK LLC,-75.906002186,43.992727025
MARTINS FOODS OF S BURLINGTON LLC,-75.224523365,43.090334089
BADASS BAGELS ARMONK LLC,-73.714152525,41.126298272
MK SUPERETTE INC,-74.117237159,40.613655122
WALGREEN EASTERN CO INC,-73.949227861,40.650719144
ORGANIZATION OF AMERICAN STATES MARKET C,-77.629480817,43.159606202
A PLUS CONVENIENCE STORES INC,-78.823483763,42.833251731
REID STORES INC,-77.139505854,42.961836328
QUEZADA GROUP FOOD CORP,-73.888995086,40.666983389
SANG LEE FARMS INC,-72.487386087,41.034746644
UNCLE GIUSEPPES OF MASSAPEQUA INC,-73.474959244,40.668242141
JSR DELI INC,-73.856283535,40.847916492
GOLDEN PINEAPPLE AVE D CORP,-73.977102215,40.722473935
FAMILY DOLLAR STORES OF NEW YORK LLC,-75.884328433,42.759987456
VINANZACA MINI MARKET CORP,-73.867596422,40.742433635
MPM ENTERPRISES INC,-73.977895646,40.67527527
MERCADO GROCERY 1 CORP,-73.827011415,40.700826957
RITE AID OF NEW YORK INC,-78.81337502,42.857887863
S&K GREEN GROCERIES INC,-73.828866414,40.68545769
FAST FOOD & GAS INC,-73.647649667,41.347993031
AGUILAR MEAT & PRODUCE INC,-73.812979774,40.728349691
GRAND UNION OF OWEGO LLC,-76.23225251,42.098073872
TREE JUICE MAPLE SYRUP LLC,-74.54820145,42.110437135
AFS MARKET INC,-73.93530305,40.696915748
JAITEH KABA LLC,-73.878835968,40.825876487
KEAP ST GOURMET DELI CORP,-73.954675763,40.708756238
STRATFORD DELI GROCERY CORP,-73.969067994,40.647220076
97 ELKO CORP,-73.915640318,40.776512986
JOON KYUK KO,-73.959686632,40.653889305
SPEEDWAY LLC,-73.671965652,42.550094781
K&K DELI & GROCERIES INC,-74.081068744,40.598464599
EMPIRE MARKET INC,-78.799179093,42.91815492
MARKET AT GUSS INC THE,-73.719307647,40.964785452
INDIAN CURRY N SPICES INC,-73.940568685,41.150508938
BROADWAY SEAFOOD LLC,-78.837371822,42.893040433
DANS SUPREME SUPERMARKETS INC,-73.647877655,40.77176183
DUTIL J ADRIEN&SHARON,-73.549757671,44.895985925
STEWARTS SHOPS CORP,-73.932639488,42.836247591
B&R FOOD MART INC,-78.275915151,42.216555887
CURRY CHRISTOPHER,-77.598298712,43.158810592
CHOCOLATE FANTASY INC,-74.14552625,40.542277559
BOCHNERS GROCERY LLC,-73.986080072,40.630297265
UNITED REFINING CO OF PA INC,-77.575895897,43.198895787
MY FAMILY MARKET INC,-74.012354908,40.636454821
DEEVINE GOURMET INC,-73.829907446,41.150095542
NIAGARA PRODUCE LOCKPORT INC,-78.685860372,43.172970225
DOLLAR TREE STORES INC,-72.864925069,40.780850042
AARON Y HOSTETLER & ADA A HOSTETLER,-78.191574178,42.295872496
BREAKTHROUGH AFRICAN MARKET LLC,-73.772026633,42.664935655
RED HOOK PETROLEUM INC,-73.875446158,41.995963851
DOLLAR TREE STORES INC,-73.837260135,40.915939282
PARK PLAZA FOOD CORP,-73.616359468,40.841295874
KANWAR GAS INC,-74.299624606,41.608202887
BRIGHT FARMERS MARKET INC,-74.013424271,41.061318238
DUANE READE ET AL PRTS,-73.963535351,40.765425405
JONY FOOD CORP,-73.903576077,40.865274072
MINI EUROMART LLC,-74.001102286,44.296339375
DOLGEN NEW YORK LLC,-78.694851891,43.135400942
OCKY WAY 1 CORP,-73.901326961,40.668368456
DANDY MINI MARTS INC,-77.107951342,42.14843616
RAHIM GROCERY & HALAL MEAT CORP,-73.966708907,40.631400198
RALPH&ANGELO FOOD STORE INC,-74.121088141,40.605040957
SHREE JI DELI CORP,-73.939292624,40.723679127
TWO FOOLS GIFTS AND GAMES LLC,-74.293857941,41.223179452
ECKERD CORP,-79.332982441,42.458130509
AMY GROCERY MINI MARKET INC,-74.015009959,40.640792749
"KPH HEALTHCARE SERVICES, INC.",-75.38286573,43.046907323
STEWARTS SHOPS CORP,-74.621399666,42.932107646
DOLLAR TREE STORES INC,-73.875187158,40.713039809
DOLGEN NEW YORK LLC,-73.453444826,44.981052771
LA REINA MORENA DELI&GROCERY CORP,-73.992660201,40.644636019
SEA HOUSE NY INC,-73.949506308,40.678930828
CUMBERLAND FARMS INC,-73.636498635,43.330584831
DEMU FISH & MEAT LLC,-73.974074253,40.686312728
AJ WORLD TRADING INC,-73.993436198,40.616119905
LITTLE GUYANA PHARMACY & CAF INC,-73.823764014,40.68626558
AZOGI IBRAHIM,-77.647839448,43.146235767
FAIRVIEW FARM AT MECOX LLC,-72.316012267,40.910718153
RITE AID OF NEW YORK INC,-78.971959622,43.088731804
P&P FOODS INC,-73.115904579,40.755451317
J&L ICE SERVICES INC,-78.206218285,42.992839018
MANIN DELI GROCERY CORP,-73.869898093,40.675577773
YEMENI DELI & GROCERY CORP,-74.137184664,40.635999181
WALGREEN EASTERN CO INC,-73.553343282,40.726418961
SPEEDWAY LLC,-76.511075514,43.168187636
FOOD CONNECTION II INC,-73.87956293,40.724994624
ADJA KHADY FOOD DISTRIBUTORS INC,-73.954628657,40.804293589
MEAT MAVEN LI INC,-73.729246321,40.61767194
LA ESQUINA DELI GROCERY INC,-73.940275569,40.7973048
48 BODEGA INC,-73.912825172,40.755942287
RANCHOS FOOD CORP,-73.963409538,40.797881601
FAMILY DOLLAR STORES OF NEW YORK LLC,-75.414901867,42.055431065
GRILL 24 GOURMET DELI CORP,-73.954763689,40.804350921
CASCON CHEESECAKE CORP,-73.818231874,40.794168208
FIVE CORNERS MOBILE INC,-74.178850853,42.936926863
CVS ALBANY LLC,-73.990217547,40.729884752
JAMAL 786 INC,-73.815045996,41.062138491
HUI HUANG FOOD INC,-74.016734117,40.638752468
SENECA FINEST DELI & GROCERY INC,-73.905431411,40.701352838
STEWARTS SHOPS CORP,-73.796405231,42.903244394
BUFFALO KING DELI INC,-78.892463557,42.924164745
GP EXPRESS SOUTH LLC,-78.824386242,42.810307905
CLINTON EXPRESS DELI CORP,-73.890000998,40.844719089
EZ DELI CORPORATION,-73.889995634,40.668445863
POMEGRANAT DELI INC,-73.931566018,40.694753221
CVS ALBANY LLC,-73.980460006,40.78259917
REID STORES INC,-78.187084495,43.074455328
WILTON AVE DELI & GROCERY INC,-73.928031872,40.818917957
CVS ALBANY LLC,-76.066939173,42.109805911
CAPUTO BAKERY INC,-73.99550812,40.682861521
DOLCI BELLA FINE FOODS INC,-73.947102712,42.077694808
PRICE CHOPPER OPERATING CO INC,-73.742420996,43.102402437
CUSE DELI MART INC,-76.198490204,43.059085851
CVS ALBANY LLC,-73.646209321,42.696802352
WEST INDIAN FRESH INC,-73.935204853,40.627851007
MO SALEH DELI AND GROCERY CORP,-73.806711116,40.706444676
MENDOZA FISH MARKET CORP,-73.928611229,40.652288152
ISARA MEXICAN TAQUERIA LLC,-73.952625549,40.818706062
FAMILY DOLLAR STORES OF NEW YORK LLC,-73.67620999,42.739088086
SUSHI BENTO NY INC,-73.795012556,41.133014926
COMPARETTO BAKERY INC,-73.972347246,41.606093706
DOLGEN NEW YORK LLC,-78.602219121,42.980064537
92-02 MARKET CORP,-73.86379942,40.727537694
QUICKCHEK CORPORATION,-73.246555193,40.807303175
NOR-BRENTWOOD SERVICE CENTER INC,-73.215821308,40.777016026
RANDY MEAT SUPERMARKET CORP,-73.87877545,40.674546883
ORO DELI & GROCERY INC,-73.935246763,40.846968121
KNOLLWOOD STATION CORP,-73.804264103,41.045889752
CVS ALBANY LLC,-73.508901425,40.694350093
EAST HAMPTON IGA LLC,-72.182209778,40.968587969
4TH AVE SNACK PLUS INC,-73.835854239,40.909341467
K&S GROCSERY DELI CORP,-73.944997179,40.680270214
ALI HUSSEIN ELTAREB,-73.895414031,40.702737444
A PLUS CONVENIENCE STORES INC,-77.715843757,42.566722172
216 SAL DELI & GROCERY CORP,-73.978570809,40.728892461
SAMERA AL GAITHI,-73.94848166,42.800820224
CUMBERLAND FARMS INC,-73.406749746,43.54618645
TARGET CORPORATION,-73.944440453,40.746853077
LONG RIVER TRADING INC,-74.006528814,40.638615759
SUSHILUX CORP,-73.977123841,40.742548048
GOLD STREET MARKET INC,-73.983003578,40.696879081
RITE AID OF NEW YORK INC,-73.90638611,40.699995556
HARRY SWEETS & SNACKS INC,-73.721689868,40.742281839
FR-ES PRODUCE INC,-73.906671262,40.669674818
GOLD ORGANIC FARM INC,-73.983048505,40.696272985
WNY FAIRPORT INC,-77.442358936,43.098236505
STEWARTS SHOPS CORP,-75.874459406,43.96504482
"KPH HEALTHCARE SERVICES, INC.",-76.155411832,43.12254788
MY SWEET DELI MARKET CORP,-73.921951723,40.864912351
YUN HAI 170 MONTROSE LLC,-73.942549831,40.707284543
EL PAISANO 2 FRUITS & VEGETABLES LLC,-73.876925313,40.826388956
NEW KAM MAN LLC,-73.998352016,40.716863508
169 JACOB DELI GROCERY CORP,-73.908935885,40.833903836
G&K AHUJA INC,-73.311111896,40.74329169
DI MARCOS BUTCHER SHOPPE LLC,-73.888152453,40.701453169
FARMBOY GRAPHICS INC,-76.571259842,42.936268967
BROOME 400 INC,-73.997407543,40.720865783
MYA GOURMET DELI CORP,-73.887667476,40.837162175
WEST HARLEM GROCERY CORP,-73.955496938,40.803707065
WOODSIDE GROCERY & DISCOUNT INC,-73.888722339,40.743307365
ESKP CORP,-73.9789547,40.684474493
A & F TOBACCO & GROCERY INC,-73.944535504,40.823765463
LOS ALAMOS MEAT & PRODUCE INC,-73.942955851,40.791026797
KNL FOOD MARKET LLC,-78.687636414,42.904078855
BEERLAND INC,-73.971500087,40.586609193
DOLGEN NEW YORK LLC,-75.777088094,42.322009826
FAMILY DOLLAR STORES OF NEW YORK LLC,-78.824006207,42.846510603
MJS AFRICAN & CARIBBEAN MARKET LLC,-73.947468661,42.815597964
O & B RANCH DELI GROCERY CORP,-73.943813655,40.834543752
ROCCFISH SEAFOOD LLC,-73.225262683,40.726475162
73 GASOLINE CORP,-73.999831338,40.616906714
WALGREEN EASTERN CO INC,-72.99599148,40.828533634
PINNACLE MILLS LLC,-75.567391401,42.686172758
OIL WELL INC,-74.974979272,43.709777144
MANJOT FOOD MART INC,-74.357296342,41.33997126
KING KULLEN GROCERY CO INC,-72.839019388,40.943251001
NORTON-HUDSON CORP,-77.599751799,43.186205501
CHEF JAKES LLC,-73.987010044,43.701139215
WOODLIFE FARM MARKET LLC,-73.379453827,42.471699176
VANLILA AND KAMALA GROCERY INC,-73.926568071,41.033179413
JAMESTOWN ICE&STORAGE INC,-79.233724866,42.094690139
RHINEBECK CONVENIENCE STORES INC,-73.902278474,41.926966161
EAST FISHKILL PROVISIONS INC,-73.797287174,41.553499318
DOUBLE A GROCERIES INC,-73.964166005,41.719451906
CORNELL UNIVERSITY RETAIL SERVICES,-76.498833074,42.439651639
HILYANA DELI CORP,-73.592025681,40.699985498
SHOP SMART MARKET INC,-77.606043926,43.147363511
NAVJOT MART INC,-74.007743436,41.930476167
ASY PETRO LINE INC,-73.689306469,42.704621955
YARYS DELI 2 CORP,-73.411736811,40.848254618
MARNOCK LLC,-73.917899911,40.642914502
JFE FRANCHISING INC,-73.88146294,41.980152774
WESCOTT GROCERY STORE INC,-76.119217685,43.041848383
181 GOURMET DELI CORP,-73.904582408,40.855185488
YAZI PETROLEUM INC,-73.975490627,41.885690946
YANDIK EILEEN P,-73.749713252,42.163587162
ALDI INC,-77.443762067,43.068795993
YOU FRESH MART INC,-74.011196193,40.637576152
NFM 30TH AVE LLC,-73.91856116,40.76543144
MUKTI 1098 PETROLEUM INC,-74.091874023,40.600124887
DOLGEN NEW YORK LLC,-75.591984408,43.074652596
ALDI INC,-76.484924646,42.482921329
LAFAYETTE DELI & CONVENIENCE INC,-74.000777488,40.717949132
MASSACHUSETTS AVENUE PROJECT INC,-78.887685453,42.912663684
PACES ITALIAN MARKET 2 INC,-73.938729779,40.845969292
DOLLAR TREE STORES INC,-75.986617737,42.997121961
PEZZINO VICTORIA,-75.772646105,42.32818138
FOOD TRAIN INC,-73.98263754,40.665855268
FAMILY DOLLAR STORES OF NEW YORK LLC,-73.734856161,42.678504406
LUPAS PETRU,-78.837371822,42.893040433
PARK JUNG KYU,-73.963024809,40.612407769
FOOD COOP,-75.912612782,42.096750307
SMITHWOOD,-77.605369183,43.157601251
CVS ALBANY LLC,-73.658868509,40.688092164
SAG HARBOR NATURALLY INC,-72.295444334,41.002133159
SPEEDWAY INC,-76.08034116,43.099526648
BECKY GROCERY INC,-73.977003225,40.611373945
ABDO STOP ONE DELI INC,-74.015597866,40.640234808
ASH-SHAMS HALAL MEAT MARKET AND GROCERY,-73.807266165,40.675037559
DOLGEN NEW YORK LLC,-78.47952014,42.49559101
BAKE CULTURE NORTHERN LLC,-73.805469588,40.762711512
TANIA & AG EXPRESS MULTISERVICE CORP,-72.541826368,40.872048824
A PLUS CONVENIENCE STORES INC,-77.60785249,43.071379463
MO DELI & GRILL CORP,-73.937368809,40.819343841
STOP&SHOP SUPERMARKET CO LLC THE,-73.701287142,40.83791927
MEADOW VIEW FARM MARKET,-77.534754834,42.154400848
MEGA MART LLC,-73.955453436,40.694543715
LA GUADALUPANA MINI MARKET LLC,-73.57459149,41.627009195
SAUDERS STORE INC,-76.823025391,42.904734319
SPEEDWAY LLC,-76.547399078,42.950271481
KOPERNIK FOODS CORP,-73.836594026,40.579911843
WEST SIDE EXPRESS INC,-78.891117423,42.90897946
LA CHIQUITA DE MOUNT EDEN CORP,-73.912488471,40.843229583
NOSTRAND HEALTH FOOD CORP,-73.949784922,40.651356713
BH KEYFOOD NY LLC,-73.742131988,40.731039108
DOLGEN NEW YORK LLC,-74.668774854,42.997335323
50 EAST END AVENUE LLC,-73.947001041,40.772204604
JUN&JEONG FARM INC,-73.799997128,40.722850743
ONE STOP DELI & MORE CORP,-73.939130266,40.689686486
HASNAT GROCERY & HALAL MEAT CORP,-74.00502552,40.604797839
FIRST STOP GROCERY NY CORP,-74.016956572,40.645823232
BUENO 111 GROCERY CORP,-73.815650416,40.681993408
WEGMANS FOOD MARKETS INC,-77.612120638,43.067084031
LAKE COUNTRY GROCERY CORPORATION,-74.296370668,41.222958044
GUJRAT SERVICE STATION INC,-73.997312912,40.598058999
NOSTRAND MEAT CORP,-73.948295612,40.639570102
HANS MEATORAMA INC,-73.716938753,40.744217136
396 DELI GROCERY INC,-73.983349415,40.665000566
FAMILY FRUIT AND MEAT MARKET CORP,-73.932361293,40.850895043
CVS ALBANY LLC,-73.98493041,40.668705954
HAMILTON FOOD MART INC,-77.108306231,42.147518761
NEW YORK DELI GROCRY CORP II,-73.894300831,40.664988412
JIFF-E-MART II LLC,-73.736108082,42.532048669
IYH DEALS INC,-74.155276164,41.336285021
RURAL CENTER REFILLERY LLC,-73.660987035,41.981034718
M A ROYAL DELI FOOD CORP,-73.912719141,40.843713261
DOLGEN NEW YORK LLC,-78.90887524,43.236330917
HERSHEY COMPANY INC THE,-73.984327919,40.759336707
146 DELI CORP,-73.919497502,40.814064122
BLESSINGS DELI&GROCERY INC,-73.91062048,40.704422207
7-ELEVEN INC,-78.799488302,42.87794517
DOLGEN NEW YORK LLC,-78.830392957,42.958192816
FREDDIES SALUMERIA & PORK STORE 1 INC,-74.165764523,40.544817862
PRUZZOS SUPERMARKET CORP,-73.832772716,40.846874705
SEXTON CHARLES C,-75.447827408,43.220096889
SHREE BHANU INC,-74.757481792,41.856244733
GLENN-WAYNE WHOLESALE BAKERY INC,-73.10801,40.78056023
PRICE CHOPPER OPERATING CO INC,-75.31893553,43.085970219
ROBO WEST LLC,-79.29542833,42.098143064
JEIG CORP,-73.957379932,40.718316511
AHMAD SARDAR,-73.624779477,40.872305483
CEMAR MEAT&PRODUCE CORP,-73.411738991,40.841470138
KENT DANIEL & LANE MEGAN,-75.236654075,44.783587621
STEWARTS SHOPS CORP,-75.467960058,43.213872553
MS FOOD CENTER CORP,-73.98284516,40.633400288
STEWARTS SHOPS CORP,-73.696426392,42.651161213
CRUZ MEAT CORP,-73.903736255,40.858273674
BRIGHTON MINI MARKET LLC,-76.135055427,43.013317153
NEW ALL NIGHTLONG DELI & GROC INC,-74.095772279,40.573625835
RHN CORP,-73.991364107,40.589842093
MORRIS AVE DELI & GROCERY CORP,-73.917447791,40.827084445
CROWN HEIGHTS DELI GROCERY INC,-73.952809616,40.673448937
ABU AND BROTHERS CORP,-73.907643395,40.83623631
LAI FU 88 GROCERY INC,-73.999449543,40.599843464
7865 S&B INC,-77.567693953,43.129669522
SANO HALAL FOOD CORP,-73.86013745,40.888021426
ALDI INC,-77.354609714,42.971823114
BOLLA OPERATING LI CORP,-73.57937236,40.749975546
FAMILY DOLLAR STORES OF NEW YORK LLC,-73.482558948,44.696474376
MASKON CORPORATION,-73.886331988,40.722017624
SAPPHIRE CAFE & DELI CORP,-73.963341393,40.718387505
SPEEDWAY LLC,-73.576034603,40.771342987
1003 PARK STREET INC,-75.374542417,44.764496286
CVS ALBANY LLC,-72.997917306,40.941280164
EMMA GROCERY STORE INC,-73.886950069,40.74357831
DOLGEN NEW YORK LLC,-74.709946762,44.688978523
MILEU MARKET INC,-73.936398927,40.700706989
SHAHIDA ENTERPRISES INC,-77.612117621,43.142060322
TOPS PT LLC,-76.019877547,43.030485247
FRATELLIS PORK&FINE FOOD STRS INC,-73.095660355,40.857709153
CVS ALBANY LLC,-77.354770814,42.975149515
M & N PORK STORE INC,-73.945258611,40.600199485
2009 CAROLINA DELI GROCERY CORP,-73.90731231,40.743135158
MAGIC GROCERY CORP,-73.977356271,40.643828255
670 TOLEDO GROCERY CORP,-73.889073373,40.813931562
XITLALI DELI GROCERY CORP,-73.943037574,40.705359639
SNL MEAT&PRODUCE CORP,-73.971693122,40.586249233
ANDRIANOS FAMILY CANDY INC,-76.083752679,43.068467799
TIKA PETROLEUM INC,-74.229374786,40.507617342
WALGREEN EASTERN CO INC,-73.350404079,42.901215345
KTM SCRIBA OPERATIONS INC,-76.472036967,43.473799957
HEIGHTS MARKET CORP THE,-73.931266197,40.852404917
TEAMS MARKET INC,-73.910023018,40.84807206
ELIOT CONVENIENCE INC,-73.873222188,40.72776367
WEGMANS FOOD MARKETS INC,-77.444003968,43.213763774
NORTH SHORE FARMS 1 LTD,-73.72191291,40.768826949
291 BUFFALO GRILL DELI CORP,-73.925402301,40.668907455
DOLGEN NEW YORK LLC,-75.390121285,42.5313985
FREEDOM ONE STOP INC,-78.388657951,42.502611802
SUNNY BABY GROCERY CORP,-73.907595116,40.7459006
G C SALUMERIA INC,-73.921496586,40.760293962
2116 UNION BLVD DELI CORP,-73.235804583,40.729145569
TRANSFIRIENDO LA VISION CORP,-73.913299336,40.704166643
DANTE'S PASTRY SHOP INC,-73.86049167,40.919635366
GENESIS DISCOUNT DELI & G INC,-73.976621765,40.596484877
R & M MAIN SUPERMARKET INC,-73.819332669,40.722509222
ANS SEAFOOD INC,-73.817107616,41.057823412
TESCO CONVENIENCE STORE INC,-73.867828681,40.904074673
BIG BOYZ DELI CORP,-73.904974011,40.640688143
PAL PKWY SERVICE INC,-73.942112799,41.032760088
MAJED ALI,-77.599080493,43.182572407
BOLLA OPERATING LI CORP,-73.543420366,40.725111259
EAST 233 FOOD CORP,-73.8433652,40.888985932
CROGHAN MEAT MARKET INC,-75.392179031,43.895179226
PRICE CHOPPER OPERATING CO INC,-75.014196939,42.460603212
PAPA FOOD MARKET DOLLAR DEALS INC,-73.87830489,40.833974998
FAMILY DOLLAR STORES OF NEW YORK LLC,-73.263072862,43.39641588
ZUBAIDAH ENTERPRISES INC,-78.833946138,42.903386007
CYPRESS EXPRESS DELI INC,-73.897590811,40.694164685
HUDSON RIVER TRADING CO OF N CREEK LLC,-73.987682189,43.701530399
POINT SUNKO CORP,-73.583539675,40.592340571
NK ORGANIC FOOD INC,-73.907241986,40.770554082
FAR DELI CORP,-73.916404831,40.690681041
DOLGEN NEW YORK LLC,-76.005952602,43.509571466
BAYRIDGE BAGELS INC,-74.029478968,40.627764967
DOLCE&BISCOTTI LLC,-73.774610438,42.872947335
HAVEN OF HOPE FARM & RESIDENCE INC,-74.370359236,42.956526099
WALGREEN EASTERN CO INC,-78.738332763,42.918379974
ESSENTIALLY WELL OILED LLC,-78.685205159,42.644385785
CLOUD GROCERY INC,-73.825124313,40.764310486
EDEN DELI AND GROCERY LLC,-74.010535364,40.647847839
TACOS-VIP CORP,-73.88823644,40.856065671
TOMMYS DELI INC,-73.789860473,40.72652868
L&L MP INC,-73.958364303,40.70844661
WALGREEN EASTERN CO INC,-73.856612693,40.669827788
AL TOUS CORP,-73.993309799,40.619909573
PO WING HONG FOOD MARKET INC,-73.996739003,40.71714229
T&S GAS CENTER INC,-73.895596018,40.926275668
OHRI GASLAND INC,-76.12354786,43.073801456
SWIFTWAY BEER&SODA INC,-73.006855852,40.796836294
LA TORRE BROTHERS INC,-73.931051536,40.618578904
SWIERSKI JEANNE,-78.754239855,42.763926393
PJ 2035 NY CORP,-73.411476469,40.832171003
HOQUE CORP,-73.98606599,40.641052421
M&G FOOD CORP,-73.911017614,40.83106719
DOLGEN NEW YORK LLC,-75.417862104,42.062287713
1172 SAMS DELI CORP,-73.85303647,40.872955416
MOLINA JOSE A,-73.22824718,40.779023666
WEGMANS FOOD MARKETS INC,-76.122269535,43.155883631
WELLS EDGE COUNTRY STORE LLC,-74.285405629,43.406191442
SCOTT & THERESA LLC,-73.756762805,42.18246725
8TH AVE FOOD CONVENIENCE CORP,-73.943494913,40.820806829
VMD DELI GROCERY INC,-73.895659453,40.740532284
DOLLAR RESORT INC,-73.917166746,40.834156676
ANN 8TH AVE GROCERY STORE INC,-74.002514972,40.642071115
EASTON STATION FARM LLC,-73.497853155,43.043244892
SHAHAB FAHAD FARRUKH,-74.034298311,40.615131008
UPTOWN CHOPCHEESE DELI CORP,-73.930648618,40.85385901
DOLLYS 1ST CUT MEAT MARKET INC,-73.938519806,40.822120421
ABOBAKR MOHAMED A,-78.890407246,42.913877461
KRS PETROL INC,-74.206859066,41.973395493
J&G FRUITS LLC,-73.295182508,40.837104717
UNITED MEAT MARKET INC,-73.980396471,40.660157879
BABKA BAKERY INC,-74.074999743,41.092653689
TRIPLE N LIVE POULTRY & HALAL MEAT INC,-73.839408585,40.680790982
DEWEY SUPER HOT INC,-77.63853805,43.189962606
CVS ALBANY LLC,-74.008385741,40.714647081
ZEYMAT INC,-72.365852337,41.111782256
EAST MAIN & BROAD MINI MART INC,-74.41188025,41.446603272
SHORT STOP STORES INC,-74.386978538,41.44407441
72ND ST GOURMET DELI CORP,-73.958607672,40.768361944
BROOKLYN CANDY GROCERY CORP,-73.955319414,40.577634362
KSJ ENTERPRISES INC,-73.26903952,40.719966069
FAMILY DOLLAR STORES OF NEW YORK LLC,-73.943194064,40.662695836
SPEEDWAY LLC,-74.917878981,42.27648859
T&F ITALIAN DELI&PORK STR INC,-73.674507464,40.707501425
LEROY SAVE MORE INC,-78.829477913,42.932609428
CITY CENTER GROCERY INC,-78.800002196,42.922605585
CARREON GROCERY DELI INC,-73.919445618,40.868358235
EAST BAKING INC,-77.86332921,42.844731041
ADYEL DELI GROCERY,-73.879345671,40.834038868
SPERAS MEAT DELI&GROCERY INC,-76.089183649,43.17637575
JERRIS CAKERY & CONFECTIONS INC,-72.662750228,40.821361198
